~Version Information
VERS.                      2.0: CWLS Log ASCII Standard - VERSION 2.0
WRAP.                       NO: One line per depth step
~Well Information Block
STRT.FT              4700.0000: 
STOP.FT              6519.9000: 
STEP.FT                 0.0500: 
NULL.                -999.2500: 
COMP.               HESS CORP.: COMPANY
WELL.                TMU 0-143: WELL
FLD.                     TIOGA: FIELD
LOC.                          : LOCATION
CNTY.                MOUNTRAIL: COUNTY
SRVC.                         : SERVICE COMPANY
DATE.          Thu Apr 23 14-09-17 2009: LOG DATE
UWI.                          : UNIQUE WELL ID
STAT.                       ND: STATE
~Curve Information Block
DEPT.FT            0 000 00 00: Depth
CCL.                          : Casing Collar Locator
DTMP.degF                     : Delta Temperature
TEMP.degF                     : Downhole Temperature
~Parameter Information Block
~A  Depth       CCL         DTMP        TEMP    
# ...
  5184.3000      0.0000      0.0315    172.1544
  5184.3500      0.0000      0.0315    172.1544
  5184.4000      0.0000      0.0317    172.1619
  5184.4500      0.0000      0.0317    172.1619
  5184.5000      0.0000      0.0317    172.1619
  5184.5500      0.0000      0.0317    172.1619
  5184.6000      0.0000      0.0317    172.1619
  5184.6500      0.0000      0.0322    172.1695
  5184.7000      0.0000      0.0322    172.1695
  5184.7500      0.0000      0.0322    172.1695
  5184.8000      0.0000      0.0322    172.1695
  5184.8500      0.0000      0.0322    172.1695
  5184.9000      0.0000      0.0329    172.1776
  5184.9500      0.0000      0.0329    172.1776
  5185.0000      0.0000      0.0329    172.1776
  5185.0500      0.0000      0.0329    172.1776
  5185.1000      0.0000      0.0329    172.1776
  5185.1500      0.0000      0.0334    172.1860
  5185.2000      0.0000      0.0334    172.1860
  5185.2500      0.0000      0.0334    172.1860
  5185.3000      0.0000      0.0334    172.1860
  5185.3500      0.0000      0.0334    172.1860
  5185.4000      0.0000      0.0337    172.1948
  5185.4500      0.0000      0.0337    172.1948
  5185.5000      0.0000      0.0337    172.1948
  5185.5500      0.0000      0.0337    172.1948
  5185.6000      0.0000      0.0337    172.1948
  5185.6500      0.0000      0.0336    172.2038
  5185.7000      0.0000      0.0336    172.2038
  5185.7500      0.0000      0.0336    172.2038
  5185.8000      0.0000      0.0336    172.2038
  5185.8500      0.0000      0.0336    172.2038
  5185.9000      0.0000      0.0332    172.2128
  5185.9500      0.0000      0.0332    172.2128
  5186.0000      0.0000      0.0332    172.2128
  5186.0500      0.0000      0.0332    172.2128
  5186.1000      0.0000      0.0332    172.2128
  5186.1500      0.0000      0.0325    172.2213
  5186.2000      0.0000      0.0325    172.2213
  5186.2500      0.0000      0.0325    172.2213
  5186.3000      0.0000      0.0325    172.2213
  5186.3500      0.0000      0.0325    172.2213
  5186.4000      0.0000      0.0317    172.2293
  5186.4500      0.0000      0.0317    172.2293
  5186.5000      0.0000      0.0317    172.2293
  5186.5500      0.0000      0.0317    172.2293
  5186.6000      0.0000      0.0317    172.2293
  5186.6500      0.0000      0.0308    172.2368
  5186.7000      0.0000      0.0308    172.2368
  5186.7500      0.0000      0.0308    172.2368
  5186.8000      0.0000      0.0308    172.2368
  5186.8500      0.0000      0.0308    172.2368
  5186.9000      0.0000      0.0301    172.2439
  5186.9500      0.0000      0.0301    172.2439
  5187.0000      0.0000      0.0301    172.2439
  5187.0500      0.0000      0.0301    172.2439
  5187.1000      0.0000      0.0301    172.2439
  5187.1500      0.0000      0.0297    172.2510
  5187.2000      0.0000      0.0297    172.2510
  5187.2500      0.0000      0.0297    172.2510
  5187.3000      0.0000      0.0297    172.2510
  5187.3500      0.0000      0.0297    172.2510
  5187.4000      0.0000      0.0295    172.2582
  5187.4500      0.0000      0.0295    172.2582
  5187.5000      0.0000      0.0295    172.2582
  5187.5500      0.0000      0.0295    172.2582
  5187.6000      0.0000      0.0295    172.2582
  5187.6500      0.0000      0.0294    172.2655
  5187.7000      0.0000      0.0294    172.2655
  5187.7500      0.0000      0.0294    172.2655
  5187.8000      0.0000      0.0294    172.2655
  5187.8500      0.0000      0.0294    172.2655
  5187.9000      0.0000      0.0294    172.2730
  5187.9500      0.0000      0.0294    172.2730
  5188.0000      0.0000      0.0294    172.2730
  5188.0500      0.0000      0.0294    172.2730
  5188.1000      0.0000      0.0294    172.2730
  5188.1500      0.0000      0.0294    172.2806
  5188.2000      0.0000      0.0294    172.2806
  5188.2500      0.0000      0.0294    172.2806
  5188.3000      0.0000      0.0294    172.2806
  5188.3500      0.0000      0.0294    172.2806
  5188.4000      0.0000      0.0292    172.2882
  5188.4500      0.0000      0.0292    172.2882
  5188.5000      0.0000      0.0292    172.2882
  5188.5500      0.0000      0.0292    172.2882
  5188.6000      0.0000      0.0292    172.2882
  5188.6500      0.0000      0.0289    172.2956
  5188.7000      0.0000      0.0289    172.2956
  5188.7500      0.0000      0.0289    172.2956
  5188.8000      0.0000      0.0289    172.2956
  5188.8500      0.0000      0.0289    172.2956
  5188.9000      0.0000      0.0286    172.3028
  5188.9500      0.0000      0.0286    172.3028
  5189.0000      0.0000      0.0286    172.3028
  5189.0500      0.0000      0.0286    172.3028
  5189.1000      0.0000      0.0286    172.3028
  5189.1500      0.0000      0.0284    172.3097
  5189.2000      0.0000      0.0284    172.3097
  5189.2500      0.0000      0.0284    172.3097
  5189.3000      0.0000      0.0284    172.3097
  5189.3500      0.0000      0.0284    172.3097
  5189.4000      0.0000      0.0286    172.3165
  5189.4500      0.0000      0.0286    172.3165
  5189.5000      0.0000      0.0286    172.3165
  5189.5500      0.0000      0.0286    172.3165
  5189.6000      0.0000      0.0286    172.3165
  5189.6500      0.0000      0.0291    172.3233
  5189.7000      0.0000      0.0291    172.3233
  5189.7500      0.0000      0.0291    172.3233
  5189.8000      0.0000      0.0291    172.3233
  5189.8500      0.0000      0.0291    172.3233
  5189.9000      0.0000      0.0302    172.3302
  5189.9500      0.0000      0.0302    172.3302
  5190.0000      0.0000      0.0302    172.3302
  5190.0500      0.0000      0.0302    172.3302
  5190.1000      0.0000      0.0302    172.3302
  5190.1500      0.0000      0.0317    172.3375
  5190.2000      0.0000      0.0317    172.3375
  5190.2500      0.0000      0.0317    172.3375
  5190.3000      0.0000      0.0317    172.3375
  5190.3500      0.0000      0.0317    172.3375
  5190.4000      0.0000      0.0336    172.3453
  5190.4500      0.0000      0.0336    172.3453
  5190.5000      0.0000      0.0336    172.3453
  5190.5500      0.0000      0.0336    172.3453
  5190.6000      0.0000      0.0336    172.3453
  5190.6500      0.0000      0.0357    172.3538
  5190.7000      0.0000      0.0357    172.3538
  5190.7500      0.0000      0.0357    172.3538
  5190.8000      0.0000      0.0357    172.3538
  5190.8500      0.0000      0.0357    172.3538
  5190.9000      0.0000      0.0377    172.3631
  5190.9500      0.0000      0.0377    172.3631
  5191.0000      0.0000      0.0377    172.3631
  5191.0500      0.0000      0.0377    172.3631
  5191.1000      0.0000      0.0377    172.3631
  5191.1500      0.0000      0.0396    172.3731
  5191.2000      0.0000      0.0396    172.3731
  5191.2500      0.0000      0.0396    172.3731
  5191.3000      0.0000      0.0396    172.3731
  5191.3500      0.0000      0.0396    172.3731
  5191.4000      0.0000      0.0412    172.3837
  5191.4500      0.0000      0.0412    172.3837
  5191.5000      0.0000      0.0412    172.3837
  5191.5500      0.0000      0.0412    172.3837
  5191.6000      0.0000      0.0412    172.3837
  5191.6500      0.0000      0.0422    172.3946
  5191.7000      0.0000      0.0422    172.3946
  5191.7500      0.0000      0.0422    172.3946
  5191.8000      0.0000      0.0422    172.3946
  5191.8500      0.0000      0.0422    172.3946
  5191.9000      0.0000      0.0427    172.4057
  5191.9500      0.0000      0.0427    172.4057
  5192.0000      0.0000      0.0427    172.4057
  5192.0500      0.0000      0.0427    172.4057
  5192.1000      0.0000      0.0427    172.4057
  5192.1500      0.0000      0.0427    172.4168
  5192.2000      0.0000      0.0427    172.4168
  5192.2500      0.0000      0.0427    172.4168
  5192.3000      0.0000      0.0427    172.4168
  5192.3500      0.0000      0.0427    172.4168
  5192.4000      0.0000      0.0423    172.4277
  5192.4500      0.0000      0.0423    172.4277
  5192.5000      0.0000      0.0423    172.4277
  5192.5500      0.0000      0.0423    172.4277
  5192.6000      0.0000      0.0423    172.4277
