~Version Information
VERS.                      2.0: CWLS Log ASCII Standard - VERSION 2.0
WRAP.                       NO: One line per depth step
~Well Information Block
STRT.FT              4700.0000: 
STOP.FT              6519.9000: 
STEP.FT                 0.0500: 
NULL.                -999.2500: 
COMP.               HESS CORP.: COMPANY
WELL.                TMU 0-143: WELL
FLD.                     TIOGA: FIELD
LOC.                          : LOCATION
CNTY.                MOUNTRAIL: COUNTY
SRVC.                         : SERVICE COMPANY
DATE.          Thu Apr 23 14-09-17 2009: LOG DATE
UWI.                          : UNIQUE WELL ID
STAT.                       ND: STATE
~Curve Information Block
DEPT.FT            0 000 00 00: Depth
CCL.                          : Casing Collar Locator
DTMP.degF                     : Delta Temperature
TEMP.degF                     : Downhole Temperature
~Parameter Information Block
~A  Depth       CCL         DTMP        TEMP    
# ...
  6395.0500      0.0000      0.0092    200.7248
  6395.1000      0.0000      0.0092    200.7248
  6395.1500      0.0000      0.0095    200.7266
  6395.2000      0.0000      0.0095    200.7266
  6395.2500      0.0000      0.0095    200.7266
  6395.3000      0.0000      0.0095    200.7266
  6395.3500      0.0000      0.0095    200.7266
  6395.4000      0.0000      0.0101    200.7288
  6395.4500      0.0000      0.0101    200.7288
  6395.5000      0.0000      0.0101    200.7288
  6395.5500      0.0000      0.0101    200.7288
  6395.6000      0.0000      0.0101    200.7288
  6395.6500      0.0000      0.0108    200.7315
  6395.7000      0.0000      0.0108    200.7315
  6395.7500      0.0000      0.0108    200.7315
  6395.8000      0.0000      0.0108    200.7315
  6395.8500      0.0000      0.0108    200.7315
  6395.9000      0.0000      0.0114    200.7346
  6395.9500      0.0000      0.0114    200.7346
  6396.0000      0.0000      0.0114    200.7346
  6396.0500      0.0000      0.0114    200.7346
  6396.1000      0.0000      0.0114    200.7346
  6396.1500      0.0000      0.0121    200.7380
  6396.2000      0.0000      0.0121    200.7380
  6396.2500      0.0000      0.0121    200.7380
  6396.3000      0.0000      0.0121    200.7380
  6396.3500      0.0000      0.0121    200.7380
  6396.4000      0.0000      0.0125    200.7413
  6396.4500      0.0000      0.0125    200.7413
  6396.5000      0.0000      0.0125    200.7413
  6396.5500      0.0000      0.0125    200.7413
  6396.6000      0.0000      0.0125    200.7413
  6396.6500      0.0000      0.0127    200.7446
  6396.7000      0.0000      0.0127    200.7446
  6396.7500      0.0000      0.0127    200.7446
  6396.8000      0.0000      0.0127    200.7446
  6396.8500      0.0000      0.0127    200.7446
  6396.9000      0.0000      0.0126    200.7477
  6396.9500      0.0000      0.0126    200.7477
  6397.0000      0.0000      0.0126    200.7477
  6397.0500      0.0000      0.0126    200.7477
  6397.1000      0.0000      0.0126    200.7477
  6397.1500      0.0000      0.0124    200.7507
  6397.2000      0.0000      0.0124    200.7507
  6397.2500      0.0000      0.0124    200.7507
  6397.3000      0.0000      0.0124    200.7507
  6397.3500      0.0000      0.0124    200.7507
  6397.4000      0.0000      0.0121    200.7538
  6397.4500      0.0000      0.0121    200.7538
  6397.5000      0.0000      0.0121    200.7538
  6397.5500      0.0000      0.0121    200.7538
  6397.6000      0.0000      0.0121    200.7538
  6397.6500      0.0000      0.0120    200.7569
  6397.7000      0.0000      0.0120    200.7569
  6397.7500      0.0000      0.0120    200.7569
  6397.8000      0.0000      0.0120    200.7569
  6397.8500      0.0000      0.0120    200.7569
  6397.9000      0.0000      0.0119    200.7598
  6397.9500      0.0000      0.0119    200.7598
  6398.0000      0.0000      0.0119    200.7598
  6398.0500      0.0000      0.0119    200.7598
  6398.1000      0.0000      0.0119    200.7598
  6398.1500      0.0000      0.0120    200.7627
  6398.2000      0.0000      0.0120    200.7627
  6398.2500      0.0000      0.0120    200.7627
  6398.3000      0.0000      0.0120    200.7627
  6398.3500      0.0000      0.0120    200.7627
  6398.4000      0.0000      0.0122    200.7656
  6398.4500      0.0000      0.0122    200.7656
  6398.5000      0.0000      0.0122    200.7656
  6398.5500      0.0000      0.0122    200.7656
  6398.6000      0.0000      0.0122    200.7656
  6398.6500      0.0000      0.0126    200.7685
  6398.7000      0.0000      0.0126    200.7685
  6398.7500      0.0000      0.0126    200.7685
  6398.8000      0.0000      0.0126    200.7685
  6398.8500      0.0000      0.0126    200.7685
  6398.9000      0.0000      0.0132    200.7715
  6398.9500      0.0000      0.0132    200.7715
  6399.0000      0.0000      0.0132    200.7715
  6399.0500      0.0000      0.0132    200.7715
  6399.1000      0.0000      0.0132    200.7715
  6399.1500      0.0000      0.0138    200.7748
  6399.2000      0.0000      0.0138    200.7748
  6399.2500      0.0000      0.0138    200.7748
  6399.3000      0.0000      0.0138    200.7748
  6399.3500      0.0000      0.0138    200.7748
  6399.4000      0.0000      0.0146    200.7783
  6399.4500      0.0000      0.0146    200.7783
  6399.5000      0.0000      0.0146    200.7783
  6399.5500      0.0000      0.0146    200.7783
  6399.6000      0.0000      0.0146    200.7783
  6399.6500      0.0000      0.0152    200.7821
  6399.7000      0.0000      0.0152    200.7821
  6399.7500      0.0000      0.0152    200.7821
  6399.8000      0.0000      0.0152    200.7821
  6399.8500      0.0000      0.0152    200.7821
  6399.9000      0.0000      0.0158    200.7862
  6399.9500      0.0000      0.0158    200.7862
  6400.0000      0.0000      0.0158    200.7862
  6400.0500      0.0000      0.0158    200.7862
  6400.1000      0.0000      0.0158    200.7862
  6400.1500      0.0000      0.0161    200.7904
  6400.2000      0.0000      0.0161    200.7904
  6400.2500      0.0000      0.0161    200.7904
  6400.3000      0.0000      0.0161    200.7904
  6400.3500      0.0000      0.0161    200.7904
  6400.4000      0.0000      0.0162    200.7947
  6400.4500      0.0000      0.0162    200.7947
  6400.5000      0.0000      0.0162    200.7947
  6400.5500      0.0000      0.0162    200.7947
  6400.6000      0.0000      0.0162    200.7947
  6400.6500      0.0000      0.0160    200.7989
  6400.7000      0.0000      0.0160    200.7989
  6400.7500      0.0000      0.0160    200.7989
  6400.8000      0.0000      0.0160    200.7989
  6400.8500      0.0000      0.0160    200.7989
  6400.9000      0.0000      0.0155    200.8030
  6400.9500      0.0000      0.0155    200.8030
  6401.0000      0.0000      0.0155    200.8030
  6401.0500      0.0000      0.0155    200.8030
  6401.1000      0.0000      0.0155    200.8030
  6401.1500      0.0000      0.0147    200.8069
  6401.2000      0.0000      0.0147    200.8069
  6401.2500      0.0000      0.0147    200.8069
  6401.3000      0.0000      0.0147    200.8069
  6401.3500      0.0000      0.0147    200.8069
  6401.4000      0.0000      0.0138    200.8106
  6401.4500      0.0000      0.0138    200.8106
  6401.5000      0.0000      0.0138    200.8106
  6401.5500      0.0000      0.0138    200.8106
  6401.6000      0.0000      0.0138    200.8106
  6401.6500      0.0000      0.0127    200.8141
  6401.7000      0.0000      0.0127    200.8141
  6401.7500      0.0000      0.0127    200.8141
  6401.8000      0.0000      0.0127    200.8141
  6401.8500      0.0000      0.0127    200.8141
  6401.9000      0.0000      0.0116    200.8172
  6401.9500      0.0000      0.0116    200.8172
  6402.0000      0.0000      0.0116    200.8172
  6402.0500      0.0000      0.0116    200.8172
  6402.1000      0.0000      0.0116    200.8172
  6402.1500      0.0000      0.0106    200.8199
  6402.2000      0.0000      0.0106    200.8199
  6402.2500      0.0000      0.0106    200.8199
  6402.3000      0.0000      0.0106    200.8199
  6402.3500      0.0000      0.0106    200.8199
  6402.4000      0.0000      0.0099    200.8222
  6402.4500      0.0000      0.0099    200.8222
  6402.5000      0.0000      0.0099    200.8222
  6402.5500      0.0000      0.0099    200.8222
  6402.6000      0.0000      0.0099    200.8222
  6402.6500      0.0000      0.0096    200.8242
  6402.7000      0.0000      0.0096    200.8242
  6402.7500      0.0000      0.0096    200.8242
  6402.8000      0.0000      0.0096    200.8242
  6402.8500      0.0000      0.0096    200.8242
  6402.9000      0.0000      0.0095    200.8262
  6402.9500      0.0000      0.0095    200.8262
  6403.0000      0.0000      0.0095    200.8262
  6403.0500      0.0000      0.0095    200.8262
  6403.1000      0.0000      0.0095    200.8262
  6403.1500      0.0000      0.0099    200.8282
  6403.2000      0.0000      0.0099    200.8282
  6403.2500      0.0000      0.0099    200.8282
  6403.3000      0.0000      0.0099    200.8282
  6403.3500      0.0000      0.0099    200.8282
