~Version Information
VERS.                      2.0: CWLS Log ASCII Standard - VERSION 2.0
WRAP.                       NO: One line per depth step
~Well Information Block
STRT.FT              4700.0000: 
STOP.FT              6519.9000: 
STEP.FT                 0.0500: 
NULL.                -999.2500: 
COMP.               HESS CORP.: COMPANY
WELL.                TMU 0-143: WELL
FLD.                     TIOGA: FIELD
LOC.                          : LOCATION
CNTY.                MOUNTRAIL: COUNTY
SRVC.                         : SERVICE COMPANY
DATE.          Thu Apr 23 14-09-17 2009: LOG DATE
UWI.                          : UNIQUE WELL ID
STAT.                       ND: STATE
~Curve Information Block
DEPT.FT            0 000 00 00: Depth
CCL.                          : Casing Collar Locator
DTMP.degF                     : Delta Temperature
TEMP.degF                     : Downhole Temperature
~Parameter Information Block
~A  Depth       CCL         DTMP        TEMP    
# ...
  5910.7500      0.0000      0.0171    193.9201
  5910.8000      0.0000      0.0171    193.9201
  5910.8500      0.0000      0.0171    193.9201
  5910.9000      0.0000      0.0178    193.9244
  5910.9500      0.0000      0.0178    193.9244
  5911.0000      0.0000      0.0178    193.9244
  5911.0500      0.0000      0.0178    193.9244
  5911.1000      0.0000      0.0178    193.9244
  5911.1500      0.0000      0.0185    193.9292
  5911.2000      0.0000      0.0185    193.9292
  5911.2500      0.0000      0.0185    193.9292
  5911.3000      0.0000      0.0185    193.9292
  5911.3500      0.0000      0.0185    193.9292
  5911.4000      0.0000      0.0192    193.9343
  5911.4500      0.0000      0.0192    193.9343
  5911.5000      0.0000      0.0192    193.9343
  5911.5500      0.0000      0.0192    193.9343
  5911.6000      0.0000      0.0192    193.9343
  5911.6500      0.0000      0.0196    193.9395
  5911.7000      0.0000      0.0196    193.9395
  5911.7500      0.0000      0.0196    193.9395
  5911.8000      0.0000      0.0196    193.9395
  5911.8500      0.0000      0.0196    193.9395
  5911.9000      0.0000      0.0197    193.9446
  5911.9500      0.0000      0.0197    193.9446
  5912.0000      0.0000      0.0197    193.9446
  5912.0500      0.0000      0.0197    193.9446
  5912.1000      0.0000      0.0197    193.9446
  5912.1500      0.0000      0.0195    193.9497
  5912.2000      0.0000      0.0195    193.9497
  5912.2500      0.0000      0.0195    193.9497
  5912.3000      0.0000      0.0195    193.9497
  5912.3500      0.0000      0.0195    193.9497
  5912.4000      0.0000      0.0190    193.9546
  5912.4500      0.0000      0.0190    193.9546
  5912.5000      0.0000      0.0190    193.9546
  5912.5500      0.0000      0.0190    193.9546
  5912.6000      0.0000      0.0190    193.9546
  5912.6500      0.0000      0.0183    193.9593
  5912.7000      0.0000      0.0183    193.9593
  5912.7500      0.0000      0.0183    193.9593
  5912.8000      0.0000      0.0183    193.9593
  5912.8500      0.0000      0.0183    193.9593
  5912.9000      0.0000      0.0176    193.9639
  5912.9500      0.0000      0.0176    193.9639
  5913.0000      0.0000      0.0176    193.9639
  5913.0500      0.0000      0.0176    193.9639
  5913.1000      0.0000      0.0176    193.9639
  5913.1500      0.0000      0.0170    193.9682
  5913.2000      0.0000      0.0170    193.9682
  5913.2500      0.0000      0.0170    193.9682
  5913.3000      0.0000      0.0170    193.9682
  5913.3500      0.0000      0.0170    193.9682
  5913.4000      0.0000      0.0166    193.9722
  5913.4500      0.0000      0.0166    193.9722
  5913.5000      0.0000      0.0166    193.9722
  5913.5500      0.0000      0.0166    193.9722
  5913.6000      0.0000      0.0166    193.9722
  5913.6500      0.0000      0.0162    193.9761
  5913.7000      0.0000      0.0162    193.9761
  5913.7500      0.0000      0.0162    193.9761
  5913.8000      0.0000      0.0162    193.9761
  5913.8500      0.0000      0.0162    193.9761
  5913.9000      0.0000      0.0159    193.9799
  5913.9500      0.0000      0.0159    193.9799
  5914.0000      0.0000      0.0159    193.9799
  5914.0500      0.0000      0.0159    193.9799
  5914.1000      0.0000      0.0159    193.9799
  5914.1500      0.0000      0.0157    193.9838
  5914.2000      0.0000      0.0157    193.9838
  5914.2500      0.0000      0.0157    193.9838
  5914.3000      0.0000      0.0157    193.9838
  5914.3500      0.0000      0.0157    193.9838
  5914.4000      0.0000      0.0156    193.9877
  5914.4500      0.0000      0.0156    193.9877
  5914.5000      0.0000      0.0156    193.9877
  5914.5500      0.0000      0.0156    193.9877
  5914.6000      0.0000      0.0156    193.9877
  5914.6500      0.0000      0.0157    193.9917
  5914.7000      0.0000      0.0157    193.9917
  5914.7500      0.0000      0.0157    193.9917
  5914.8000      0.0000      0.0157    193.9917
  5914.8500      0.0000      0.0157    193.9917
  5914.9000      0.0000      0.0159    193.9956
  5914.9500      0.0000      0.0159    193.9956
  5915.0000      0.0000      0.0159    193.9956
  5915.0500      0.0000      0.0159    193.9956
  5915.1000      0.0000      0.0159    193.9956
  5915.1500      0.0000      0.0161    193.9995
  5915.2000      0.0000      0.0161    193.9995
  5915.2500      0.0000      0.0161    193.9995
  5915.3000      0.0000      0.0161    193.9995
  5915.3500      0.0000      0.0161    193.9995
  5915.4000      0.0000      0.0164    194.0034
  5915.4500      0.0000      0.0164    194.0034
  5915.5000      0.0000      0.0164    194.0034
  5915.5500      0.0000      0.0164    194.0034
  5915.6000      0.0000      0.0164    194.0034
  5915.6500      0.0000      0.0166    194.0075
  5915.7000      0.0000      0.0166    194.0075
  5915.7500      0.0000      0.0166    194.0075
  5915.8000      0.0000      0.0166    194.0075
  5915.8500      0.0000      0.0166    194.0075
  5915.9000      0.0000      0.0168    194.0117
  5915.9500      0.0000      0.0168    194.0117
  5916.0000      0.0000      0.0168    194.0117
  5916.0500      0.0000      0.0168    194.0117
  5916.1000      0.0000      0.0168    194.0117
  5916.1500      0.0000      0.0170    194.0160
  5916.2000      0.0000      0.0170    194.0160
  5916.2500      0.0000      0.0170    194.0160
  5916.3000      0.0000      0.0170    194.0160
  5916.3500      0.0000      0.0170    194.0160
  5916.4000      0.0000      0.0170    194.0204
  5916.4500      0.0000      0.0170    194.0204
  5916.5000      0.0000      0.0170    194.0204
  5916.5500      0.0000      0.0170    194.0204
  5916.6000      0.0000      0.0170    194.0204
  5916.6500      0.0000      0.0171    194.0249
  5916.7000      0.0000      0.0171    194.0249
  5916.7500      0.0000      0.0171    194.0249
  5916.8000      0.0000      0.0171    194.0249
  5916.8500      0.0000      0.0171    194.0249
  5916.9000      0.0000      0.0171    194.0292
  5916.9500      0.0000      0.0171    194.0292
  5917.0000      0.0000      0.0171    194.0292
  5917.0500      0.0000      0.0171    194.0292
  5917.1000      0.0000      0.0171    194.0292
  5917.1500      0.0000      0.0172    194.0334
  5917.2000      0.0000      0.0172    194.0334
  5917.2500      0.0000      0.0172    194.0334
  5917.3000      0.0000      0.0172    194.0334
  5917.3500      0.0000      0.0172    194.0334
  5917.4000      0.0000      0.0176    194.0375
  5917.4500      0.0000      0.0176    194.0375
  5917.5000      0.0000      0.0176    194.0375
  5917.5500      0.0000      0.0176    194.0375
  5917.6000      0.0000      0.0176    194.0375
  5917.6500      0.0000      0.0181    194.0416
  5917.7000      0.0000      0.0181    194.0416
  5917.7500      0.0000      0.0181    194.0416
  5917.8000      0.0000      0.0181    194.0416
  5917.8500      0.0000      0.0181    194.0416
  5917.9000      0.0000      0.0189    194.0459
  5917.9500      0.0000      0.0189    194.0459
  5918.0000      0.0000      0.0189    194.0459
  5918.0500      0.0000      0.0189    194.0459
  5918.1000      0.0000      0.0189    194.0459
  5918.1500      0.0000      0.0198    194.0505
  5918.2000      0.0000      0.0198    194.0505
  5918.2500      0.0000      0.0198    194.0505
  5918.3000      0.0000      0.0198    194.0505
  5918.3500      0.0000      0.0198    194.0505
  5918.4000      0.0000      0.0206    194.0556
  5918.4500      0.0000      0.0206    194.0556
  5918.5000      0.0000      0.0206    194.0556
  5918.5500      0.0000      0.0206    194.0556
  5918.6000      0.0000      0.0206    194.0556
  5918.6500      0.0000      0.0213    194.0611
  5918.7000      0.0000      0.0213    194.0611
  5918.7500      0.0000      0.0213    194.0611
  5918.8000      0.0000      0.0213    194.0611
  5918.8500      0.0000      0.0213    194.0611
  5918.9000      0.0000      0.0217    194.0670
  5918.9500      0.0000      0.0217    194.0670
  5919.0000      0.0000      0.0217    194.0670
  5919.0500      0.0000      0.0217    194.0670
