~Version Information
VERS.                      2.0: CWLS Log ASCII Standard - VERSION 2.0
WRAP.                       NO: One line per depth step
~Well Information Block
STRT.FT              4700.0000: 
STOP.FT              6519.9000: 
STEP.FT                 0.0500: 
NULL.                -999.2500: 
COMP.               HESS CORP.: COMPANY
WELL.                TMU 0-143: WELL
FLD.                     TIOGA: FIELD
LOC.                          : LOCATION
CNTY.                MOUNTRAIL: COUNTY
SRVC.                         : SERVICE COMPANY
DATE.          Thu Apr 23 14-09-17 2009: LOG DATE
UWI.                          : UNIQUE WELL ID
STAT.                       ND: STATE
~Curve Information Block
DEPT.FT            0 000 00 00: Depth
CCL.                          : Casing Collar Locator
DTMP.degF                     : Delta Temperature
TEMP.degF                     : Downhole Temperature
~Parameter Information Block
~A  Depth       CCL         DTMP        TEMP    
# ...
  6511.9500      0.0000      0.0058    202.1094
  6512.0000      0.0000      0.0058    202.1094
  6512.0500      0.0000      0.0058    202.1094
  6512.1000      0.0000      0.0058    202.1094
  6512.1500      0.0000      0.0053    202.1107
  6512.2000      0.0000      0.0053    202.1107
  6512.2500      0.0000      0.0053    202.1107
  6512.3000      0.0000      0.0053    202.1107
  6512.3500      0.0000      0.0053    202.1107
  6512.4000      0.0000      0.0048    202.1119
  6512.4500      0.0000      0.0048    202.1119
  6512.5000      0.0000      0.0048    202.1119
  6512.5500      0.0000      0.0048    202.1119
  6512.6000      0.0000      0.0048    202.1119
  6512.6500      0.0000      0.0044    202.1130
  6512.7000      0.0000      0.0044    202.1130
  6512.7500      0.0000      0.0044    202.1130
  6512.8000      0.0000      0.0044    202.1130
  6512.8500      0.0000      0.0044    202.1130
  6512.9000      0.0000      0.0041    202.1140
  6512.9500      0.0000      0.0041    202.1140
  6513.0000      0.0000      0.0041    202.1140
  6513.0500      0.0000      0.0041    202.1140
  6513.1000      0.0000      0.0041    202.1140
  6513.1500      0.0000      0.0038    202.1150
  6513.2000      0.0000      0.0038    202.1150
  6513.2500      0.0000      0.0038    202.1150
  6513.3000      0.0000      0.0038    202.1150
  6513.3500      0.0000      0.0038    202.1150
  6513.4000      0.0000      0.0036    202.1159
  6513.4500      0.0000      0.0036    202.1159
  6513.5000      0.0000      0.0036    202.1159
  6513.5500      0.0000      0.0036    202.1159
  6513.6000      0.0000      0.0036    202.1159
  6513.6500      0.0000      0.0034    202.1167
  6513.7000      0.0000      0.0034    202.1167
  6513.7500      0.0000      0.0034    202.1167
  6513.8000      0.0000      0.0034    202.1167
  6513.8500      0.0000      0.0034    202.1167
  6513.9000      0.0000      0.0033    202.1175
  6513.9500      0.0000      0.0033    202.1175
  6514.0000      0.0000      0.0033    202.1175
  6514.0500      0.0000      0.0033    202.1175
  6514.1000      0.0000      0.0033    202.1175
  6514.1500      0.0000      0.0031    202.1183
  6514.2000      0.0000      0.0031    202.1183
  6514.2500      0.0000      0.0031    202.1183
  6514.3000      0.0000      0.0031    202.1183
  6514.3500      0.0000      0.0031    202.1183
  6514.4000      0.0000      0.0029    202.1191
  6514.4500      0.0000      0.0029    202.1191
  6514.5000      0.0000      0.0029    202.1191
  6514.5500      0.0000      0.0029    202.1191
  6514.6000      0.0000      0.0029    202.1191
  6514.6500      0.0000      0.0026    202.1199
  6514.7000      0.0000      0.0026    202.1199
  6514.7500      0.0000      0.0026    202.1199
  6514.8000      0.0000      0.0026    202.1199
  6514.8500      0.0000      0.0026    202.1199
  6514.9000      0.0000      0.0024    202.1206
  6514.9500      0.0000      0.0024    202.1206
  6515.0000      0.0000      0.0024    202.1206
  6515.0500      0.0000      0.0024    202.1206
  6515.1000      0.0000      0.0024    202.1206
  6515.1500      0.0000      0.0022    202.1212
  6515.2000      0.0000      0.0022    202.1212
  6515.2500      0.0000      0.0022    202.1212
  6515.3000      0.0000      0.0022    202.1212
  6515.3500      0.0000      0.0022    202.1212
  6515.4000      0.0000      0.0019    202.1216
  6515.4500      0.0000      0.0019    202.1216
  6515.5000      0.0000      0.0019    202.1216
  6515.5500      0.0000      0.0019    202.1216
  6515.6000      0.0000      0.0019    202.1216
  6515.6500      0.0000      0.0016    202.1220
  6515.7000      0.0000      0.0016    202.1220
  6515.7500      0.0000      0.0016    202.1220
  6515.8000      0.0000      0.0016    202.1220
  6515.8500      0.0000      0.0016    202.1220
  6515.9000      0.0000      0.0014    202.1223
  6515.9500      0.0000      0.0014    202.1223
  6516.0000      0.0000      0.0014    202.1223
  6516.0500      0.0000      0.0014    202.1223
  6516.1000      0.0000      0.0014    202.1223
  6516.1500      0.0000      0.0012    202.1226
  6516.2000      0.0000      0.0012    202.1226
  6516.2500      0.0000      0.0012    202.1226
  6516.3000      0.0000      0.0012    202.1226
  6516.3500      0.0000      0.0012    202.1226
  6516.4000      0.0000   -999.2500    202.1229
  6516.4500      0.0000   -999.2500    202.1229
  6516.5000      0.0000   -999.2500    202.1229
  6516.5500      0.0000   -999.2500    202.1229
  6516.6000      0.0000   -999.2500    202.1229
  6516.6500      0.0000   -999.2500    202.1231
  6516.7000      0.0000   -999.2500    202.1231
  6516.7500      0.0000   -999.2500    202.1231
  6516.8000      0.0000   -999.2500    202.1231
  6516.8500      0.0000   -999.2500    202.1231
  6516.9000      0.0000   -999.2500    202.1234
  6516.9500      0.0000   -999.2500    202.1234
  6517.0000   -999.2500   -999.2500    202.1234
  6517.0500   -999.2500   -999.2500    202.1234
  6517.1000   -999.2500   -999.2500    202.1234
  6517.1500   -999.2500   -999.2500    202.1236
  6517.2000   -999.2500   -999.2500    202.1236
  6517.2500   -999.2500   -999.2500    202.1236
  6517.3000   -999.2500   -999.2500    202.1236
  6517.3500   -999.2500   -999.2500    202.1236
  6517.4000   -999.2500   -999.2500   -999.2500
  6517.4500   -999.2500   -999.2500   -999.2500
  6517.5000   -999.2500   -999.2500   -999.2500
  6517.5500   -999.2500   -999.2500   -999.2500
  6517.6000   -999.2500   -999.2500   -999.2500
  6517.6500   -999.2500   -999.2500   -999.2500
  6517.7000   -999.2500   -999.2500   -999.2500
  6517.7500   -999.2500   -999.2500   -999.2500
  6517.8000   -999.2500   -999.2500   -999.2500
  6517.8500   -999.2500   -999.2500   -999.2500
  6517.9000   -999.2500   -999.2500   -999.2500
  6517.9500   -999.2500   -999.2500   -999.2500
  6518.0000   -999.2500   -999.2500   -999.2500
  6518.0500   -999.2500   -999.2500   -999.2500
  6518.1000   -999.2500   -999.2500   -999.2500
  6518.1500   -999.2500   -999.2500   -999.2500
  6518.2000   -999.2500   -999.2500   -999.2500
  6518.2500   -999.2500   -999.2500   -999.2500
  6518.3000   -999.2500   -999.2500   -999.2500
  6518.3500   -999.2500   -999.2500   -999.2500
  6518.4000   -999.2500   -999.2500   -999.2500
  6518.4500   -999.2500   -999.2500   -999.2500
  6518.5000   -999.2500   -999.2500   -999.2500
  6518.5500   -999.2500   -999.2500   -999.2500
  6518.6000   -999.2500   -999.2500   -999.2500
  6518.6500   -999.2500   -999.2500   -999.2500
  6518.7000   -999.2500   -999.2500   -999.2500
  6518.7500   -999.2500   -999.2500   -999.2500
  6518.8000   -999.2500   -999.2500   -999.2500
  6518.8500   -999.2500   -999.2500   -999.2500
  6518.9000   -999.2500   -999.2500   -999.2500
  6518.9500   -999.2500   -999.2500   -999.2500
  6519.0000   -999.2500   -999.2500   -999.2500
  6519.0500   -999.2500   -999.2500   -999.2500
  6519.1000   -999.2500   -999.2500   -999.2500
  6519.1500   -999.2500   -999.2500   -999.2500
  6519.2000   -999.2500   -999.2500   -999.2500
  6519.2500   -999.2500   -999.2500   -999.2500
  6519.3000   -999.2500   -999.2500   -999.2500
  6519.3500   -999.2500   -999.2500   -999.2500
  6519.4000   -999.2500   -999.2500   -999.2500
  6519.4500   -999.2500   -999.2500   -999.2500
  6519.5000   -999.2500   -999.2500   -999.2500
  6519.5500   -999.2500   -999.2500   -999.2500
  6519.6000   -999.2500   -999.2500   -999.2500
  6519.6500   -999.2500   -999.2500   -999.2500
  6519.7000   -999.2500   -999.2500   -999.2500
  6519.7500   -999.2500   -999.2500   -999.2500
  6519.8000   -999.2500   -999.2500   -999.2500
  6519.8500   -999.2500   -999.2500   -999.2500
  6519.9000   -999.2500   -999.2500   -999.2500
