~Version Information
VERS.                      2.0: CWLS Log ASCII Standard - VERSION 2.0
WRAP.                       NO: One line per depth step
~Well Information Block
STRT.FT              4700.0000: 
STOP.FT              6519.9000: 
STEP.FT                 0.0500: 
NULL.                -999.2500: 
COMP.               HESS CORP.: COMPANY
WELL.                TMU 0-143: WELL
FLD.                     TIOGA: FIELD
LOC.                          : LOCATION
CNTY.                MOUNTRAIL: COUNTY
SRVC.                         : SERVICE COMPANY
DATE.          Thu Apr 23 14-09-17 2009: LOG DATE
UWI.                          : UNIQUE WELL ID
STAT.                       ND: STATE
~Curve Information Block
DEPT.FT            0 000 00 00: Depth
CCL.                          : Casing Collar Locator
DTMP.degF                     : Delta Temperature
TEMP.degF                     : Downhole Temperature
~Parameter Information Block
~A  Depth       CCL         DTMP        TEMP    
# ...
  4816.9000      0.0000      0.0167    170.5835
  4816.9500      0.0000      0.0167    170.5835
  4817.0000      0.0000      0.0167    170.5835
  4817.0500      0.0000      0.0167    170.5835
  4817.1000      0.0000      0.0167    170.5835
  4817.1500      0.0000      0.0167    170.5878
  4817.2000      0.0000      0.0167    170.5878
  4817.2500      0.0000      0.0167    170.5878
  4817.3000      0.0000      0.0167    170.5878
  4817.3500      0.0000      0.0167    170.5878
  4817.4000      0.0000      0.0167    170.5922
  4817.4500      0.0000      0.0167    170.5922
  4817.5000      0.0000      0.0167    170.5922
  4817.5500      0.0000      0.0167    170.5922
  4817.6000      0.0000      0.0167    170.5922
  4817.6500      0.0000      0.0168    170.5965
  4817.7000      0.0000      0.0168    170.5965
  4817.7500      0.0000      0.0168    170.5965
  4817.8000      0.0000      0.0168    170.5965
  4817.8500      0.0000      0.0168    170.5965
  4817.9000      0.0000      0.0170    170.6007
  4817.9500      0.0000      0.0170    170.6007
  4818.0000      0.0000      0.0170    170.6007
  4818.0500      0.0000      0.0170    170.6007
  4818.1000      0.0000      0.0170    170.6007
  4818.1500      0.0000      0.0172    170.6047
  4818.2000      0.0000      0.0172    170.6047
  4818.2500      0.0000      0.0172    170.6047
  4818.3000      0.0000      0.0172    170.6047
  4818.3500      0.0000      0.0172    170.6047
  4818.4000      0.0000      0.0175    170.6087
  4818.4500      0.0000      0.0175    170.6087
  4818.5000      0.0000      0.0175    170.6087
  4818.5500      0.0000      0.0175    170.6087
  4818.6000      0.0000      0.0175    170.6087
  4818.6500      0.0000      0.0177    170.6129
  4818.7000      0.0000      0.0177    170.6129
  4818.7500      0.0000      0.0177    170.6129
  4818.8000      0.0000      0.0177    170.6129
  4818.8500      0.0000      0.0177    170.6129
  4818.9000      0.0000      0.0179    170.6175
  4818.9500      0.0000      0.0179    170.6175
  4819.0000      0.0000      0.0179    170.6175
  4819.0500      0.0000      0.0179    170.6175
  4819.1000      0.0000      0.0179    170.6175
  4819.1500      0.0000      0.0181    170.6223
  4819.2000      0.0000      0.0181    170.6223
  4819.2500      0.0000      0.0181    170.6223
  4819.3000      0.0000      0.0181    170.6223
  4819.3500      0.0000      0.0181    170.6223
  4819.4000      0.0000      0.0181    170.6272
  4819.4500      0.0000      0.0181    170.6272
  4819.5000      0.0000      0.0181    170.6272
  4819.5500      0.0000      0.0181    170.6272
  4819.6000      0.0000      0.0181    170.6272
  4819.6500      0.0000      0.0179    170.6320
  4819.7000      0.0000      0.0179    170.6320
  4819.7500      0.0000      0.0179    170.6320
  4819.8000      0.0000      0.0179    170.6320
  4819.8500      0.0000      0.0179    170.6320
  4819.9000      0.0000      0.0176    170.6365
  4819.9500      0.0000      0.0176    170.6365
  4820.0000      0.0000      0.0176    170.6365
  4820.0500      0.0000      0.0176    170.6365
  4820.1000      0.0000      0.0176    170.6365
  4820.1500      0.0000      0.0172    170.6408
  4820.2000      0.0000      0.0172    170.6408
  4820.2500      0.0000      0.0172    170.6408
  4820.3000      0.0000      0.0172    170.6408
  4820.3500      0.0000      0.0172    170.6408
  4820.4000      0.0000      0.0169    170.6449
  4820.4500      0.0000      0.0169    170.6449
  4820.5000      0.0000      0.0169    170.6449
  4820.5500      0.0000      0.0169    170.6449
  4820.6000      0.0000      0.0169    170.6449
  4820.6500      0.0000      0.0167    170.6488
  4820.7000      0.0000      0.0167    170.6488
  4820.7500      0.0000      0.0167    170.6488
  4820.8000      0.0000      0.0167    170.6488
  4820.8500      0.0000      0.0167    170.6488
  4820.9000      0.0000      0.0168    170.6527
  4820.9500      0.0000      0.0168    170.6527
  4821.0000      0.0000      0.0168    170.6527
  4821.0500      0.0000      0.0168    170.6527
  4821.1000      0.0000      0.0168    170.6527
  4821.1500      0.0000      0.0171    170.6568
  4821.2000      0.0000      0.0171    170.6568
  4821.2500      0.0000      0.0171    170.6568
  4821.3000      0.0000      0.0171    170.6568
  4821.3500      0.0000      0.0171    170.6568
  4821.4000      0.0000      0.0176    170.6609
  4821.4500      0.0000      0.0176    170.6609
  4821.5000      0.0000      0.0176    170.6609
  4821.5500      0.0000      0.0176    170.6609
  4821.6000      0.0000      0.0176    170.6609
  4821.6500      0.0000      0.0181    170.6653
  4821.7000      0.0000      0.0181    170.6653
  4821.7500      0.0000      0.0181    170.6653
  4821.8000      0.0000      0.0181    170.6653
  4821.8500      0.0000      0.0181    170.6653
  4821.9000      0.0000      0.0184    170.6700
  4821.9500      0.0000      0.0184    170.6700
  4822.0000      0.0000      0.0184    170.6700
  4822.0500      0.0000      0.0184    170.6700
  4822.1000      0.0000      0.0184    170.6700
  4822.1500      0.0000      0.0185    170.6750
  4822.2000      0.0000      0.0185    170.6750
  4822.2500      0.0000      0.0185    170.6750
  4822.3000      0.0000      0.0185    170.6750
  4822.3500      0.0000      0.0185    170.6750
  4822.4000      0.0000      0.0182    170.6801
  4822.4500      0.0000      0.0182    170.6801
  4822.5000      0.0000      0.0182    170.6801
  4822.5500      0.0000      0.0182    170.6801
  4822.6000      0.0000      0.0182    170.6801
  4822.6500      0.0000      0.0177    170.6850
  4822.7000      0.0000      0.0177    170.6850
  4822.7500      0.0000      0.0177    170.6850
  4822.8000      0.0000      0.0177    170.6850
  4822.8500      0.0000      0.0177    170.6850
  4822.9000      0.0000      0.0170    170.6896
  4822.9500      0.0000      0.0170    170.6896
  4823.0000      0.0000      0.0170    170.6896
  4823.0500      0.0000      0.0170    170.6896
  4823.1000      0.0000      0.0170    170.6896
  4823.1500      0.0000      0.0161    170.6937
  4823.2000      0.0000      0.0161    170.6937
  4823.2500      0.0000      0.0161    170.6937
  4823.3000      0.0000      0.0161    170.6937
  4823.3500      0.0000      0.0161    170.6937
  4823.4000      0.0000      0.0153    170.6974
  4823.4500      0.0000      0.0153    170.6974
  4823.5000      0.0000      0.0153    170.6974
  4823.5500      0.0000      0.0153    170.6974
  4823.6000      0.0000      0.0153    170.6974
  4823.6500      0.0000      0.0146    170.7007
  4823.7000      0.0000      0.0146    170.7007
  4823.7500      0.0000      0.0146    170.7007
  4823.8000      0.0000      0.0146    170.7007
  4823.8500      0.0000      0.0146    170.7007
  4823.9000      0.0000      0.0141    170.7040
  4823.9500      0.0000      0.0141    170.7040
  4824.0000      0.0000      0.0141    170.7040
  4824.0500      0.0000      0.0141    170.7040
  4824.1000      0.0000      0.0141    170.7040
  4824.1500      0.0000      0.0138    170.7072
  4824.2000      0.0000      0.0138    170.7072
  4824.2500      0.0000      0.0138    170.7072
  4824.3000      0.0000      0.0138    170.7072
  4824.3500      0.0000      0.0138    170.7072
  4824.4000      0.0000      0.0137    170.7107
  4824.4500      0.0000      0.0137    170.7107
  4824.5000      0.0000      0.0137    170.7107
  4824.5500      0.0000      0.0137    170.7107
  4824.6000      0.0000      0.0137    170.7107
  4824.6500      0.0000      0.0137    170.7142
  4824.7000      0.0000      0.0137    170.7142
  4824.7500      0.0000      0.0137    170.7142
  4824.8000      0.0000      0.0137    170.7142
  4824.8500      0.0000      0.0137    170.7142
  4824.9000      0.0000      0.0137    170.7178
  4824.9500      0.0000      0.0137    170.7178
  4825.0000      0.0000      0.0137    170.7178
  4825.0500      0.0000      0.0137    170.7178
  4825.1000      0.0000      0.0137    170.7178
  4825.1500      0.0000      0.0138    170.7214
  4825.2000      0.0000      0.0138    170.7214
