~Version Information
VERS.                      2.0: CWLS Log ASCII Standard - VERSION 2.0
WRAP.                       NO: One line per depth step
~Well Information Block
STRT.FT              4700.0000: 
STOP.FT              6519.9000: 
STEP.FT                 0.0500: 
NULL.                -999.2500: 
COMP.               HESS CORP.: COMPANY
WELL.                TMU 0-143: WELL
FLD.                     TIOGA: FIELD
LOC.                          : LOCATION
CNTY.                MOUNTRAIL: COUNTY
SRVC.                         : SERVICE COMPANY
DATE.          Thu Apr 23 14-09-17 2009: LOG DATE
UWI.                          : UNIQUE WELL ID
STAT.                       ND: STATE
~Curve Information Block
DEPT.FT            0 000 00 00: Depth
CCL.                          : Casing Collar Locator
DTMP.degF                     : Delta Temperature
TEMP.degF                     : Downhole Temperature
~Parameter Information Block
~A  Depth       CCL         DTMP        TEMP    
# ...
  4942.1500      0.0000      0.0098    172.0885
  4942.2000      0.0000      0.0098    172.0885
  4942.2500      0.0000      0.0098    172.0885
  4942.3000      0.0000      0.0098    172.0885
  4942.3500      0.0000      0.0098    172.0885
  4942.4000      0.0000      0.0091    172.0908
  4942.4500      0.0000      0.0091    172.0908
  4942.5000      0.0000      0.0091    172.0908
  4942.5500      0.0000      0.0091    172.0908
  4942.6000      0.0000      0.0091    172.0908
  4942.6500      0.0000      0.0086    172.0930
  4942.7000      0.0000      0.0086    172.0930
  4942.7500      0.0000      0.0086    172.0930
  4942.8000      0.0000      0.0086    172.0930
  4942.8500      0.0000      0.0086    172.0930
  4942.9000      0.0000      0.0084    172.0951
  4942.9500      0.0000      0.0084    172.0951
  4943.0000      0.0000      0.0084    172.0951
  4943.0500      0.0000      0.0084    172.0951
  4943.1000      0.0000      0.0084    172.0951
  4943.1500      0.0000      0.0083    172.0970
  4943.2000      0.0000      0.0083    172.0970
  4943.2500      0.0000      0.0083    172.0970
  4943.3000      0.0000      0.0083    172.0970
  4943.3500      0.0000      0.0083    172.0970
  4943.4000      0.0000      0.0086    172.0989
  4943.4500      0.0000      0.0086    172.0989
  4943.5000      0.0000      0.0086    172.0989
  4943.5500      0.0000      0.0086    172.0989
  4943.6000      0.0000      0.0086    172.0989
  4943.6500      0.0000      0.0090    172.1008
  4943.7000      0.0000      0.0090    172.1008
  4943.7500      0.0000      0.0090    172.1008
  4943.8000      0.0000      0.0090    172.1008
  4943.8500      0.0000      0.0090    172.1008
  4943.9000      0.0000      0.0098    172.1028
  4943.9500      0.0000      0.0098    172.1028
  4944.0000      0.0000      0.0098    172.1028
  4944.0500      0.0000      0.0098    172.1028
  4944.1000      0.0000      0.0098    172.1028
  4944.1500      0.0000      0.0108    172.1052
  4944.2000      0.0000      0.0108    172.1052
  4944.2500      0.0000      0.0108    172.1052
  4944.3000      0.0000      0.0108    172.1052
  4944.3500      0.0000      0.0108    172.1052
  4944.4000      0.0000      0.0120    172.1079
  4944.4500      0.0000      0.0120    172.1079
  4944.5000      0.0000      0.0120    172.1079
  4944.5500      0.0000      0.0120    172.1079
  4944.6000      0.0000      0.0120    172.1079
  4944.6500      0.0000      0.0134    172.1111
  4944.7000      0.0000      0.0134    172.1111
  4944.7500      0.0000      0.0134    172.1111
  4944.8000      0.0000      0.0134    172.1111
  4944.8500      0.0000      0.0134    172.1111
  4944.9000      0.0000      0.0149    172.1146
  4944.9500      0.0000      0.0149    172.1146
  4945.0000      0.0000      0.0149    172.1146
  4945.0500      0.0000      0.0149    172.1146
  4945.1000      0.0000      0.0149    172.1146
  4945.1500      0.0000      0.0164    172.1186
  4945.2000      0.0000      0.0164    172.1186
  4945.2500      0.0000      0.0164    172.1186
  4945.3000      0.0000      0.0164    172.1186
  4945.3500      0.0000      0.0164    172.1186
  4945.4000      0.0000      0.0177    172.1229
  4945.4500      0.0000      0.0177    172.1229
  4945.5000      0.0000      0.0177    172.1229
  4945.5500      0.0000      0.0177    172.1229
  4945.6000      0.0000      0.0177    172.1229
  4945.6500      0.0000      0.0187    172.1276
  4945.7000      0.0000      0.0187    172.1276
  4945.7500      0.0000      0.0187    172.1276
  4945.8000      0.0000      0.0187    172.1276
  4945.8500      0.0000      0.0187    172.1276
  4945.9000      0.0000      0.0195    172.1327
  4945.9500      0.0000      0.0195    172.1327
  4946.0000      0.0000      0.0195    172.1327
  4946.0500      0.0000      0.0195    172.1327
  4946.1000      0.0000      0.0195    172.1327
  4946.1500      0.0000      0.0200    172.1380
  4946.2000      0.0000      0.0200    172.1380
  4946.2500      0.0000      0.0200    172.1380
  4946.3000      0.0000      0.0200    172.1380
  4946.3500      0.0000      0.0200    172.1380
  4946.4000      0.0000      0.0202    172.1433
  4946.4500      0.0000      0.0202    172.1433
  4946.5000      0.0000      0.0202    172.1433
  4946.5500      0.0000      0.0202    172.1433
  4946.6000      0.0000      0.0202    172.1433
  4946.6500      0.0000      0.0203    172.1486
  4946.7000      0.0000      0.0203    172.1486
  4946.7500      0.0000      0.0203    172.1486
  4946.8000      0.0000      0.0203    172.1486
  4946.8500      0.0000      0.0203    172.1486
  4946.9000      0.0000      0.0201    172.1536
  4946.9500      0.0000      0.0201    172.1536
  4947.0000      0.0000      0.0201    172.1536
  4947.0500      0.0000      0.0201    172.1536
  4947.1000      0.0000      0.0201    172.1536
  4947.1500      0.0000      0.0199    172.1586
  4947.2000      0.0000      0.0199    172.1586
  4947.2500      0.0000      0.0199    172.1586
  4947.3000      0.0000      0.0199    172.1586
  4947.3500      0.0000      0.0199    172.1586
  4947.4000      0.0000      0.0196    172.1633
  4947.4500      0.0000      0.0196    172.1633
  4947.5000      0.0000      0.0196    172.1633
  4947.5500      0.0000      0.0196    172.1633
  4947.6000      0.0000      0.0196    172.1633
  4947.6500      0.0000      0.0193    172.1681
  4947.7000      0.0000      0.0193    172.1681
  4947.7500      0.0000      0.0193    172.1681
  4947.8000      0.0000      0.0193    172.1681
  4947.8500      0.0000      0.0193    172.1681
  4947.9000      0.0000      0.0189    172.1729
  4947.9500      0.0000      0.0189    172.1729
  4948.0000      0.0000      0.0189    172.1729
  4948.0500      0.0000      0.0189    172.1729
  4948.1000      0.0000      0.0189    172.1729
  4948.1500      0.0000      0.0184    172.1777
  4948.2000      0.0000      0.0184    172.1777
  4948.2500      0.0000      0.0184    172.1777
  4948.3000      0.0000      0.0184    172.1777
  4948.3500      0.0000      0.0184    172.1777
  4948.4000      0.0000      0.0178    172.1825
  4948.4500      0.0000      0.0178    172.1825
  4948.5000      0.0000      0.0178    172.1825
  4948.5500      0.0000      0.0178    172.1825
  4948.6000      0.0000      0.0178    172.1825
  4948.6500      0.0000      0.0170    172.1871
  4948.7000      0.0000      0.0170    172.1871
  4948.7500      0.0000      0.0170    172.1871
  4948.8000      0.0000      0.0170    172.1871
  4948.8500      0.0000      0.0170    172.1871
  4948.9000      0.0000      0.0160    172.1914
  4948.9500      0.0000      0.0160    172.1914
  4949.0000      0.0000      0.0160    172.1914
  4949.0500      0.0000      0.0160    172.1914
  4949.1000      0.0000      0.0160    172.1914
  4949.1500      0.0000      0.0150    172.1953
  4949.2000      0.0000      0.0150    172.1953
  4949.2500      0.0000      0.0150    172.1953
  4949.3000      0.0000      0.0150    172.1953
  4949.3500      0.0000      0.0150    172.1953
  4949.4000      0.0000      0.0141    172.1989
  4949.4500      0.0000      0.0141    172.1989
  4949.5000      0.0000      0.0141    172.1989
  4949.5500      0.0000      0.0141    172.1989
  4949.6000      0.0000      0.0141    172.1989
  4949.6500      0.0000      0.0134    172.2020
  4949.7000      0.0000      0.0134    172.2020
  4949.7500      0.0000      0.0134    172.2020
  4949.8000      0.0000      0.0134    172.2020
  4949.8500      0.0000      0.0134    172.2020
  4949.9000      0.0000      0.0131    172.2049
  4949.9500      0.0000      0.0131    172.2049
  4950.0000      0.0000      0.0131    172.2049
  4950.0500      0.0000      0.0131    172.2049
  4950.1000      0.0000      0.0131    172.2049
  4950.1500      0.0000      0.0132    172.2078
  4950.2000      0.0000      0.0132    172.2078
  4950.2500      0.0000      0.0132    172.2078
  4950.3000      0.0000      0.0132    172.2078
  4950.3500      0.0000      0.0132    172.2078
  4950.4000      0.0000      0.0136    172.2107
  4950.4500      0.0000      0.0136    172.2107
