~Version Information
VERS.                      2.0: CWLS Log ASCII Standard - VERSION 2.0
WRAP.                       NO: One line per depth step
~Well Information Block
STRT.FT              4700.0000: 
STOP.FT              6519.9000: 
STEP.FT                 0.0500: 
NULL.                -999.2500: 
COMP.               HESS CORP.: COMPANY
WELL.                TMU 0-143: WELL
FLD.                     TIOGA: FIELD
LOC.                          : LOCATION
CNTY.                MOUNTRAIL: COUNTY
SRVC.                         : SERVICE COMPANY
DATE.          Thu Apr 23 14-09-17 2009: LOG DATE
UWI.                          : UNIQUE WELL ID
STAT.                       ND: STATE
~Curve Information Block
DEPT.FT            0 000 00 00: Depth
CCL.                          : Casing Collar Locator
DTMP.degF                     : Delta Temperature
TEMP.degF                     : Downhole Temperature
~Parameter Information Block
~A  Depth       CCL         DTMP        TEMP    
# ...
  5059.0500      0.0000     -0.0109    173.1574
  5059.1000      0.0000     -0.0109    173.1574
  5059.1500      0.0000     -0.0102    173.1548
  5059.2000      0.0000     -0.0102    173.1548
  5059.2500      0.0000     -0.0102    173.1548
  5059.3000      0.0000     -0.0102    173.1548
  5059.3500      0.0000     -0.0102    173.1548
  5059.4000      0.0000     -0.0093    173.1525
  5059.4500      0.0000     -0.0093    173.1525
  5059.5000      0.0000     -0.0093    173.1525
  5059.5500      0.0000     -0.0093    173.1525
  5059.6000      0.0000     -0.0093    173.1525
  5059.6500      0.0000     -0.0083    173.1503
  5059.7000      0.0000     -0.0083    173.1503
  5059.7500      0.0000     -0.0083    173.1503
  5059.8000      0.0000     -0.0083    173.1503
  5059.8500      0.0000     -0.0083    173.1503
  5059.9000      0.0000     -0.0074    173.1483
  5059.9500      0.0000     -0.0074    173.1483
  5060.0000      0.0000     -0.0074    173.1483
  5060.0500      0.0000     -0.0074    173.1483
  5060.1000      0.0000     -0.0074    173.1483
  5060.1500      0.0000     -0.0066    173.1465
  5060.2000      0.0000     -0.0066    173.1465
  5060.2500      0.0000     -0.0066    173.1465
  5060.3000      0.0000     -0.0066    173.1465
  5060.3500      0.0000     -0.0066    173.1465
  5060.4000      0.0000     -0.0059    173.1449
  5060.4500      0.0000     -0.0059    173.1449
  5060.5000      0.0000     -0.0059    173.1449
  5060.5500      0.0000     -0.0059    173.1449
  5060.6000      0.0000     -0.0059    173.1449
  5060.6500      0.0000     -0.0054    173.1437
  5060.7000      0.0000     -0.0054    173.1437
  5060.7500      0.0000     -0.0054    173.1437
  5060.8000      0.0000     -0.0054    173.1437
  5060.8500      0.0000     -0.0054    173.1437
  5060.9000      0.0000     -0.0051    173.1426
  5060.9500      0.0000     -0.0051    173.1426
  5061.0000      0.0000     -0.0051    173.1426
  5061.0500      0.0000     -0.0051    173.1426
  5061.1000      0.0000     -0.0051    173.1426
  5061.1500      0.0000     -0.0049    173.1417
  5061.2000      0.0000     -0.0049    173.1417
  5061.2500      0.0000     -0.0049    173.1417
  5061.3000      0.0000     -0.0049    173.1417
  5061.3500      0.0000     -0.0049    173.1417
  5061.4000      0.0000     -0.0047    173.1406
  5061.4500      0.0000     -0.0047    173.1406
  5061.5000      0.0000     -0.0047    173.1406
  5061.5500      0.0000     -0.0047    173.1406
  5061.6000      0.0000     -0.0047    173.1406
  5061.6500      0.0000     -0.0047    173.1394
  5061.7000      0.0000     -0.0047    173.1394
  5061.7500      0.0000     -0.0047    173.1394
  5061.8000      0.0000     -0.0047    173.1394
  5061.8500      0.0000     -0.0047    173.1394
  5061.9000      0.0000     -0.0047    173.1381
  5061.9500      0.0000     -0.0047    173.1381
  5062.0000      0.0000     -0.0047    173.1381
  5062.0500      0.0000     -0.0047    173.1381
  5062.1000      0.0000     -0.0047    173.1381
  5062.1500      0.0000     -0.0048    173.1368
  5062.2000      0.0000     -0.0048    173.1368
  5062.2500      0.0000     -0.0048    173.1368
  5062.3000      0.0000     -0.0048    173.1368
  5062.3500      0.0000     -0.0048    173.1368
  5062.4000      0.0000     -0.0047    173.1355
  5062.4500      0.0000     -0.0047    173.1355
  5062.5000      0.0000     -0.0047    173.1355
  5062.5500      0.0000     -0.0047    173.1355
  5062.6000      0.0000     -0.0047    173.1355
  5062.6500      0.0000     -0.0046    173.1343
  5062.7000      0.0000     -0.0046    173.1343
  5062.7500      0.0000     -0.0046    173.1343
  5062.8000      0.0000     -0.0046    173.1343
  5062.8500      0.0000     -0.0046    173.1343
  5062.9000      0.0000     -0.0044    173.1332
  5062.9500      0.0000     -0.0044    173.1332
  5063.0000      0.0000     -0.0044    173.1332
  5063.0500      0.0000     -0.0044    173.1332
  5063.1000      0.0000     -0.0044    173.1332
  5063.1500      0.0000     -0.0041    173.1322
  5063.2000      0.0000     -0.0041    173.1322
  5063.2500      0.0000     -0.0041    173.1322
  5063.3000      0.0000     -0.0041    173.1322
  5063.3500      0.0000     -0.0041    173.1322
  5063.4000      0.0000     -0.0038    173.1311
  5063.4500      0.0000     -0.0038    173.1311
  5063.5000      0.0000     -0.0038    173.1311
  5063.5500      0.0000     -0.0038    173.1311
  5063.6000      0.0000     -0.0038    173.1311
  5063.6500      0.0000     -0.0034    173.1301
  5063.7000      0.0000     -0.0034    173.1301
  5063.7500      0.0000     -0.0034    173.1301
  5063.8000      0.0000     -0.0034    173.1301
  5063.8500      0.0000     -0.0034    173.1301
  5063.9000      0.0000     -0.0031    173.1293
  5063.9500      0.0000     -0.0031    173.1293
  5064.0000      0.0000     -0.0031    173.1293
  5064.0500      0.0000     -0.0031    173.1293
  5064.1000      0.0000     -0.0031    173.1293
  5064.1500      0.0000     -0.0028    173.1285
  5064.2000      0.0000     -0.0028    173.1285
  5064.2500      0.0000     -0.0028    173.1285
  5064.3000      0.0000     -0.0028    173.1285
  5064.3500      0.0000     -0.0028    173.1285
  5064.4000      0.0000     -0.0024    173.1280
  5064.4500      0.0000     -0.0024    173.1280
  5064.5000      0.0000     -0.0024    173.1280
  5064.5500      0.0000     -0.0024    173.1280
  5064.6000      0.0000     -0.0024    173.1280
  5064.6500      0.0000     -0.0020    173.1275
  5064.7000      0.0000     -0.0020    173.1275
  5064.7500      0.0000     -0.0020    173.1275
  5064.8000      0.0000     -0.0020    173.1275
  5064.8500      0.0000     -0.0020    173.1275
  5064.9000      0.0000     -0.0016    173.1270
  5064.9500      0.0000     -0.0016    173.1270
  5065.0000      0.0000     -0.0016    173.1270
  5065.0500      0.0000     -0.0016    173.1270
  5065.1000      0.0000     -0.0016    173.1270
  5065.1500      0.0000     -0.0012    173.1266
  5065.2000      0.0000     -0.0012    173.1266
  5065.2500      0.0000     -0.0012    173.1266
  5065.3000      0.0000     -0.0012    173.1266
  5065.3500      0.0000     -0.0012    173.1266
  5065.4000      0.0000     -0.0009    173.1263
  5065.4500      0.0000     -0.0009    173.1263
  5065.5000      0.0000     -0.0009    173.1263
  5065.5500      0.0000     -0.0009    173.1263
  5065.6000      0.0000     -0.0009    173.1263
  5065.6500      0.0000     -0.0007    173.1261
  5065.7000      0.0000     -0.0007    173.1261
  5065.7500      0.0000     -0.0007    173.1261
  5065.8000      0.0000     -0.0007    173.1261
  5065.8500      0.0000     -0.0007    173.1261
  5065.9000      0.0000     -0.0007    173.1261
  5065.9500      0.0000     -0.0007    173.1261
  5066.0000      0.0000     -0.0007    173.1261
  5066.0500      0.0000     -0.0007    173.1261
  5066.1000      0.0000     -0.0007    173.1261
  5066.1500      0.0000     -0.0009    173.1262
  5066.2000      0.0000     -0.0009    173.1262
  5066.2500      0.0000     -0.0009    173.1262
  5066.3000      0.0000     -0.0009    173.1262
  5066.3500      0.0000     -0.0009    173.1262
  5066.4000      0.0000     -0.0012    173.1262
  5066.4500      0.0000     -0.0012    173.1262
  5066.5000      0.0000     -0.0012    173.1262
  5066.5500      0.0000     -0.0012    173.1262
  5066.6000      0.0000     -0.0012    173.1262
  5066.6500      0.0000     -0.0018    173.1260
  5066.7000      0.0000     -0.0018    173.1260
  5066.7500      0.0000     -0.0018    173.1260
  5066.8000      0.0000     -0.0018    173.1260
  5066.8500      0.0000     -0.0018    173.1260
  5066.9000      0.0000     -0.0025    173.1256
  5066.9500      0.0000     -0.0025    173.1256
  5067.0000      0.0000     -0.0025    173.1256
  5067.0500      0.0000     -0.0025    173.1256
  5067.1000      0.0000     -0.0025    173.1256
  5067.1500      0.0000     -0.0031    173.1249
  5067.2000      0.0000     -0.0031    173.1249
  5067.2500      0.0000     -0.0031    173.1249
  5067.3000      0.0000     -0.0031    173.1249
  5067.3500      0.0000     -0.0031    173.1249
