~Version Information
VERS.                      2.0: CWLS Log ASCII Standard - VERSION 2.0
WRAP.                       NO: One line per depth step
~Well Information Block
STRT.FT              4700.0000: 
STOP.FT              6519.9000: 
STEP.FT                 0.0500: 
NULL.                -999.2500: 
COMP.               HESS CORP.: COMPANY
WELL.                TMU 0-143: WELL
FLD.                     TIOGA: FIELD
LOC.                          : LOCATION
CNTY.                MOUNTRAIL: COUNTY
SRVC.                         : SERVICE COMPANY
DATE.          Thu Apr 23 14-09-17 2009: LOG DATE
UWI.                          : UNIQUE WELL ID
STAT.                       ND: STATE
~Curve Information Block
DEPT.FT            0 000 00 00: Depth
CCL.                          : Casing Collar Locator
DTMP.degF                     : Delta Temperature
TEMP.degF                     : Downhole Temperature
~Parameter Information Block
~A  Depth       CCL         DTMP        TEMP    
# ...
  5301.2000      0.0000      0.0388    179.0220
  5301.2500      0.0000      0.0388    179.0220
  5301.3000      0.0000      0.0388    179.0220
  5301.3500      0.0000      0.0388    179.0220
  5301.4000      0.0000      0.0374    179.0312
  5301.4500      0.0000      0.0374    179.0312
  5301.5000      0.0000      0.0374    179.0312
  5301.5500      0.0000      0.0374    179.0312
  5301.6000      0.0000      0.0374    179.0312
  5301.6500      0.0000      0.0360    179.0403
  5301.7000      0.0000      0.0360    179.0403
  5301.7500      0.0000      0.0360    179.0403
  5301.8000      0.0000      0.0360    179.0403
  5301.8500      0.0000      0.0360    179.0403
  5301.9000      0.0000      0.0347    179.0495
  5301.9500      0.0000      0.0347    179.0495
  5302.0000      0.0000      0.0347    179.0495
  5302.0500      0.0000      0.0347    179.0495
  5302.1000      0.0000      0.0347    179.0495
  5302.1500      0.0000      0.0335    179.0585
  5302.2000      0.0000      0.0335    179.0585
  5302.2500      0.0000      0.0335    179.0585
  5302.3000      0.0000      0.0335    179.0585
  5302.3500      0.0000      0.0335    179.0585
  5302.4000      0.0000      0.0323    179.0670
  5302.4500      0.0000      0.0323    179.0670
  5302.5000      0.0000      0.0323    179.0670
  5302.5500      0.0000      0.0323    179.0670
  5302.6000      0.0000      0.0323    179.0670
  5302.6500      0.0000      0.0314    179.0749
  5302.7000      0.0000      0.0314    179.0749
  5302.7500      0.0000      0.0314    179.0749
  5302.8000      0.0000      0.0314    179.0749
  5302.8500      0.0000      0.0314    179.0749
  5302.9000      0.0000      0.0310    179.0822
  5302.9500      0.0000      0.0310    179.0822
  5303.0000      0.0000      0.0310    179.0822
  5303.0500      0.0000      0.0310    179.0822
  5303.1000      0.0000      0.0310    179.0822
  5303.1500      0.0000      0.0311    179.0890
  5303.2000      0.0000      0.0311    179.0890
  5303.2500      0.0000      0.0311    179.0890
  5303.3000      0.0000      0.0311    179.0890
  5303.3500      0.0000      0.0311    179.0890
  5303.4000      0.0000      0.0320    179.0959
  5303.4500      0.0000      0.0320    179.0959
  5303.5000      0.0000      0.0320    179.0959
  5303.5500      0.0000      0.0320    179.0959
  5303.6000      0.0000      0.0320    179.0959
  5303.6500      0.0000      0.0337    179.1032
  5303.7000      0.0000      0.0337    179.1032
  5303.7500      0.0000      0.0337    179.1032
  5303.8000      0.0000      0.0337    179.1032
  5303.8500      0.0000      0.0337    179.1032
  5303.9000      0.0000      0.0361    179.1114
  5303.9500      0.0000      0.0361    179.1114
  5304.0000      0.0000      0.0361    179.1114
  5304.0500      0.0000      0.0361    179.1114
  5304.1000      0.0000      0.0361    179.1114
  5304.1500      0.0000      0.0388    179.1207
  5304.2000      0.0000      0.0388    179.1207
  5304.2500      0.0000      0.0388    179.1207
  5304.3000      0.0000      0.0388    179.1207
  5304.3500      0.0000      0.0388    179.1207
  5304.4000      0.0000      0.0414    179.1310
  5304.4500      0.0000      0.0414    179.1310
  5304.5000      0.0000      0.0414    179.1310
  5304.5500      0.0000      0.0414    179.1310
  5304.6000      0.0000      0.0414    179.1310
  5304.6500      0.0000      0.0436    179.1423
  5304.7000      0.0000      0.0436    179.1423
  5304.7500      0.0000      0.0436    179.1423
  5304.8000      0.0000      0.0436    179.1423
  5304.8500      0.0000      0.0436    179.1423
  5304.9000      0.0000      0.0451    179.1543
  5304.9500      0.0000      0.0451    179.1543
  5305.0000      0.0000      0.0451    179.1543
  5305.0500      0.0000      0.0451    179.1543
  5305.1000      0.0000      0.0451    179.1543
  5305.1500      0.0000      0.0459    179.1666
  5305.2000      0.0000      0.0459    179.1666
  5305.2500      0.0000      0.0459    179.1666
  5305.3000      0.0000      0.0459    179.1666
  5305.3500      0.0000      0.0459    179.1666
  5305.4000      0.0000      0.0463    179.1787
  5305.4500      0.0000      0.0463    179.1787
  5305.5000      0.0000      0.0463    179.1787
  5305.5500      0.0000      0.0463    179.1787
  5305.6000      0.0000      0.0463    179.1787
  5305.6500      0.0000      0.0463    179.1904
  5305.7000      0.0000      0.0463    179.1904
  5305.7500      0.0000      0.0463    179.1904
  5305.8000      0.0000      0.0463    179.1904
  5305.8500      0.0000      0.0463    179.1904
  5305.9000      0.0000      0.0463    179.2016
  5305.9500      0.0000      0.0463    179.2016
  5306.0000      0.0000      0.0463    179.2016
  5306.0500      0.0000      0.0463    179.2016
  5306.1000      0.0000      0.0463    179.2016
  5306.1500      0.0000      0.0463    179.2126
  5306.2000      0.0000      0.0463    179.2126
  5306.2500      0.0000      0.0463    179.2126
  5306.3000      0.0000      0.0463    179.2126
  5306.3500      0.0000      0.0463    179.2126
  5306.4000      0.0000      0.0465    179.2236
  5306.4500      0.0000      0.0465    179.2236
  5306.5000      0.0000      0.0465    179.2236
  5306.5500      0.0000      0.0465    179.2236
  5306.6000      0.0000      0.0465    179.2236
  5306.6500      0.0000      0.0468    179.2350
  5306.7000      0.0000      0.0468    179.2350
  5306.7500      0.0000      0.0468    179.2350
  5306.8000      0.0000      0.0468    179.2350
  5306.8500      0.0000      0.0468    179.2350
  5306.9000      0.0000      0.0473    179.2468
  5306.9500      0.0000      0.0473    179.2468
  5307.0000      0.0000      0.0473    179.2468
  5307.0500      0.0000      0.0473    179.2468
  5307.1000      0.0000      0.0473    179.2468
  5307.1500      0.0000      0.0477    179.2592
  5307.2000      0.0000      0.0477    179.2592
  5307.2500      0.0000      0.0477    179.2592
  5307.3000      0.0000      0.0477    179.2592
  5307.3500      0.0000      0.0477    179.2592
  5307.4000      0.0000      0.0479    179.2717
  5307.4500      0.0000      0.0479    179.2717
  5307.5000      0.0000      0.0479    179.2717
  5307.5500      0.0000      0.0479    179.2717
  5307.6000      0.0000      0.0479    179.2717
  5307.6500      0.0000      0.0476    179.2841
  5307.7000      0.0000      0.0476    179.2841
  5307.7500      0.0000      0.0476    179.2841
  5307.8000      0.0000      0.0476    179.2841
  5307.8500      0.0000      0.0476    179.2841
  5307.9000      0.0000      0.0469    179.2962
  5307.9500      0.0000      0.0469    179.2962
  5308.0000      0.0000      0.0469    179.2962
  5308.0500      0.0000      0.0469    179.2962
  5308.1000      0.0000      0.0469    179.2962
  5308.1500      0.0000      0.0457    179.3080
  5308.2000      0.0000      0.0457    179.3080
  5308.2500      0.0000      0.0457    179.3080
  5308.3000      0.0000      0.0457    179.3080
  5308.3500      0.0000      0.0457    179.3080
  5308.4000      0.0000      0.0443    179.3193
  5308.4500      0.0000      0.0443    179.3193
  5308.5000      0.0000      0.0443    179.3193
  5308.5500      0.0000      0.0443    179.3193
  5308.6000      0.0000      0.0443    179.3193
  5308.6500      0.0000      0.0427    179.3302
  5308.7000      0.0000      0.0427    179.3302
  5308.7500      0.0000      0.0427    179.3302
  5308.8000      0.0000      0.0427    179.3302
  5308.8500      0.0000      0.0427    179.3302
  5308.9000      0.0000      0.0413    179.3407
  5308.9500      0.0000      0.0413    179.3407
  5309.0000      0.0000      0.0413    179.3407
  5309.0500      0.0000      0.0413    179.3407
  5309.1000      0.0000      0.0413    179.3407
  5309.1500      0.0000      0.0401    179.3506
  5309.2000      0.0000      0.0401    179.3506
  5309.2500      0.0000      0.0401    179.3506
  5309.3000      0.0000      0.0401    179.3506
  5309.3500      0.0000      0.0401    179.3506
  5309.4000      0.0000      0.0391    179.3602
  5309.4500      0.0000      0.0391    179.3602
  5309.5000      0.0000      0.0391    179.3602
