~Version Information
VERS.                      2.0: CWLS Log ASCII Standard - VERSION 2.0
WRAP.                       NO: One line per depth step
~Well Information Block
STRT.FT              4700.0000: 
STOP.FT              6519.9000: 
STEP.FT                 0.0500: 
NULL.                -999.2500: 
COMP.               HESS CORP.: COMPANY
WELL.                TMU 0-143: WELL
FLD.                     TIOGA: FIELD
LOC.                          : LOCATION
CNTY.                MOUNTRAIL: COUNTY
SRVC.                         : SERVICE COMPANY
DATE.          Thu Apr 23 14-09-17 2009: LOG DATE
UWI.                          : UNIQUE WELL ID
STAT.                       ND: STATE
~Curve Information Block
DEPT.FT            0 000 00 00: Depth
CCL.                          : Casing Collar Locator
DTMP.degF                     : Delta Temperature
TEMP.degF                     : Downhole Temperature
~Parameter Information Block
~A  Depth       CCL         DTMP        TEMP    
# ...
  6269.8000      0.0000      0.0120    199.1206
  6269.8500      0.0000      0.0120    199.1206
  6269.9000      0.0000      0.0122    199.1237
  6269.9500      0.0000      0.0122    199.1237
  6270.0000      0.0000      0.0122    199.1237
  6270.0500      0.0000      0.0122    199.1237
  6270.1000      0.0000      0.0122    199.1237
  6270.1500      0.0000      0.0124    199.1268
  6270.2000      0.0000      0.0124    199.1268
  6270.2500      0.0000      0.0124    199.1268
  6270.3000      0.0000      0.0124    199.1268
  6270.3500      0.0000      0.0124    199.1268
  6270.4000      0.0000      0.0124    199.1300
  6270.4500      0.0000      0.0124    199.1300
  6270.5000      0.0000      0.0124    199.1300
  6270.5500      0.0000      0.0124    199.1300
  6270.6000      0.0000      0.0124    199.1300
  6270.6500      0.0000      0.0124    199.1332
  6270.7000      0.0000      0.0124    199.1332
  6270.7500      0.0000      0.0124    199.1332
  6270.8000      0.0000      0.0124    199.1332
  6270.8500      0.0000      0.0124    199.1332
  6270.9000      0.0000      0.0124    199.1364
  6270.9500      0.0000      0.0124    199.1364
  6271.0000      0.0000      0.0124    199.1364
  6271.0500      0.0000      0.0124    199.1364
  6271.1000      0.0000      0.0124    199.1364
  6271.1500      0.0000      0.0125    199.1394
  6271.2000      0.0000      0.0125    199.1394
  6271.2500      0.0000      0.0125    199.1394
  6271.3000      0.0000      0.0125    199.1394
  6271.3500      0.0000      0.0125    199.1394
  6271.4000      0.0000      0.0126    199.1424
  6271.4500      0.0000      0.0126    199.1424
  6271.5000      0.0000      0.0126    199.1424
  6271.5500      0.0000      0.0126    199.1424
  6271.6000      0.0000      0.0126    199.1424
  6271.6500      0.0000      0.0129    199.1454
  6271.7000      0.0000      0.0129    199.1454
  6271.7500      0.0000      0.0129    199.1454
  6271.8000      0.0000      0.0129    199.1454
  6271.8500      0.0000      0.0129    199.1454
  6271.9000      0.0000      0.0132    199.1485
  6271.9500      0.0000      0.0132    199.1485
  6272.0000      0.0000      0.0132    199.1485
  6272.0500      0.0000      0.0132    199.1485
  6272.1000      0.0000      0.0132    199.1485
  6272.1500      0.0000      0.0134    199.1517
  6272.2000      0.0000      0.0134    199.1517
  6272.2500      0.0000      0.0134    199.1517
  6272.3000      0.0000      0.0134    199.1517
  6272.3500      0.0000      0.0134    199.1517
  6272.4000      0.0000      0.0135    199.1553
  6272.4500      0.0000      0.0135    199.1553
  6272.5000      0.0000      0.0135    199.1553
  6272.5500      0.0000      0.0135    199.1553
  6272.6000      0.0000      0.0135    199.1553
  6272.6500      0.0000      0.0135    199.1590
  6272.7000      0.0000      0.0135    199.1590
  6272.7500      0.0000      0.0135    199.1590
  6272.8000      0.0000      0.0135    199.1590
  6272.8500      0.0000      0.0135    199.1590
  6272.9000      0.0000      0.0133    199.1628
  6272.9500      0.0000      0.0133    199.1628
  6273.0000      0.0000      0.0133    199.1628
  6273.0500      0.0000      0.0133    199.1628
  6273.1000      0.0000      0.0133    199.1628
  6273.1500      0.0000      0.0129    199.1663
  6273.2000      0.0000      0.0129    199.1663
  6273.2500      0.0000      0.0129    199.1663
  6273.3000      0.0000      0.0129    199.1663
  6273.3500      0.0000      0.0129    199.1663
  6273.4000      0.0000      0.0125    199.1695
  6273.4500      0.0000      0.0125    199.1695
  6273.5000      0.0000      0.0125    199.1695
  6273.5500      0.0000      0.0125    199.1695
  6273.6000      0.0000      0.0125    199.1695
  6273.6500      0.0000      0.0120    199.1724
  6273.7000      0.0000      0.0120    199.1724
  6273.7500      0.0000      0.0120    199.1724
  6273.8000      0.0000      0.0120    199.1724
  6273.8500      0.0000      0.0120    199.1724
  6273.9000      0.0000      0.0117    199.1750
  6273.9500      0.0000      0.0117    199.1750
  6274.0000      0.0000      0.0117    199.1750
  6274.0500      0.0000      0.0117    199.1750
  6274.1000      0.0000      0.0117    199.1750
  6274.1500      0.0000      0.0117    199.1776
  6274.2000      0.0000      0.0117    199.1776
  6274.2500      0.0000      0.0117    199.1776
  6274.3000      0.0000      0.0117    199.1776
  6274.3500      0.0000      0.0117    199.1776
  6274.4000      0.0000      0.0119    199.1802
  6274.4500      0.0000      0.0119    199.1802
  6274.5000      0.0000      0.0119    199.1802
  6274.5500      0.0000      0.0119    199.1802
  6274.6000      0.0000      0.0119    199.1802
  6274.6500      0.0000      0.0124    199.1830
  6274.7000      0.0000      0.0124    199.1830
  6274.7500      0.0000      0.0124    199.1830
  6274.8000      0.0000      0.0124    199.1830
  6274.8500      0.0000      0.0124    199.1830
  6274.9000      0.0000      0.0129    199.1862
  6274.9500      0.0000      0.0129    199.1862
  6275.0000      0.0000      0.0129    199.1862
  6275.0500      0.0000      0.0129    199.1862
  6275.1000      0.0000      0.0129    199.1862
  6275.1500      0.0000      0.0134    199.1897
  6275.2000      0.0000      0.0134    199.1897
  6275.2500      0.0000      0.0134    199.1897
  6275.3000      0.0000      0.0134    199.1897
  6275.3500      0.0000      0.0134    199.1897
  6275.4000      0.0000      0.0138    199.1934
  6275.4500      0.0000      0.0138    199.1934
  6275.5000      0.0000      0.0138    199.1934
  6275.5500      0.0000      0.0138    199.1934
  6275.6000      0.0000      0.0138    199.1934
  6275.6500      0.0000      0.0140    199.1972
  6275.7000      0.0000      0.0140    199.1972
  6275.7500      0.0000      0.0140    199.1972
  6275.8000      0.0000      0.0140    199.1972
  6275.8500      0.0000      0.0140    199.1972
  6275.9000      0.0000      0.0141    199.2009
  6275.9500      0.0000      0.0141    199.2009
  6276.0000      0.0000      0.0141    199.2009
  6276.0500      0.0000      0.0141    199.2009
  6276.1000      0.0000      0.0141    199.2009
  6276.1500      0.0000      0.0140    199.2045
  6276.2000      0.0000      0.0140    199.2045
  6276.2500      0.0000      0.0140    199.2045
  6276.3000      0.0000      0.0140    199.2045
  6276.3500      0.0000      0.0140    199.2045
  6276.4000      0.0000      0.0137    199.2078
  6276.4500      0.0000      0.0137    199.2078
  6276.5000      0.0000      0.0137    199.2078
  6276.5500      0.0000      0.0137    199.2078
  6276.6000      0.0000      0.0137    199.2078
  6276.6500      0.0000      0.0133    199.2111
  6276.7000      0.0000      0.0133    199.2111
  6276.7500      0.0000      0.0133    199.2111
  6276.8000      0.0000      0.0133    199.2111
  6276.8500      0.0000      0.0133    199.2111
  6276.9000      0.0000      0.0129    199.2144
  6276.9500      0.0000      0.0129    199.2144
  6277.0000      0.0000      0.0129    199.2144
  6277.0500      0.0000      0.0129    199.2144
  6277.1000      0.0000      0.0129    199.2144
  6277.1500      0.0000      0.0125    199.2176
  6277.2000      0.0000      0.0125    199.2176
  6277.2500      0.0000      0.0125    199.2176
  6277.3000      0.0000      0.0125    199.2176
  6277.3500      0.0000      0.0125    199.2176
  6277.4000      0.0000      0.0124    199.2208
  6277.4500      0.0000      0.0124    199.2208
  6277.5000      0.0000      0.0124    199.2208
  6277.5500      0.0000      0.0124    199.2208
  6277.6000      0.0000      0.0124    199.2208
  6277.6500      0.0000      0.0126    199.2238
  6277.7000      0.0000      0.0126    199.2238
  6277.7500      0.0000      0.0126    199.2238
  6277.8000      0.0000      0.0126    199.2238
  6277.8500      0.0000      0.0126    199.2238
  6277.9000      0.0000      0.0131    199.2267
  6277.9500      0.0000      0.0131    199.2267
  6278.0000      0.0000      0.0131    199.2267
  6278.0500      0.0000      0.0131    199.2267
  6278.1000      0.0000      0.0131    199.2267
