~Version Information
VERS.                      2.0: CWLS Log ASCII Standard - VERSION 2.0
WRAP.                       NO: One line per depth step
~Well Information Block
STRT.FT              4700.0000: 
STOP.FT              6519.9000: 
STEP.FT                 0.0500: 
NULL.                -999.2500: 
COMP.               HESS CORP.: COMPANY
WELL.                TMU 0-143: WELL
FLD.                     TIOGA: FIELD
LOC.                          : LOCATION
CNTY.                MOUNTRAIL: COUNTY
SRVC.                         : SERVICE COMPANY
DATE.          Thu Apr 23 14-09-17 2009: LOG DATE
UWI.                          : UNIQUE WELL ID
STAT.                       ND: STATE
~Curve Information Block
DEPT.FT            0 000 00 00: Depth
CCL.                          : Casing Collar Locator
DTMP.degF                     : Delta Temperature
TEMP.degF                     : Downhole Temperature
~Parameter Information Block
~A  Depth       CCL         DTMP        TEMP    
# ...
  5668.6000      0.0000      0.0271    188.6950
  5668.6500      0.0000      0.0272    188.7018
  5668.7000      0.0000      0.0272    188.7018
  5668.7500      0.0000      0.0272    188.7018
  5668.8000      0.0000      0.0272    188.7018
  5668.8500      0.0000      0.0272    188.7018
  5668.9000      0.0000      0.0271    188.7087
  5668.9500      0.0000      0.0271    188.7087
  5669.0000      0.0000      0.0271    188.7087
  5669.0500      0.0000      0.0271    188.7087
  5669.1000      0.0000      0.0271    188.7087
  5669.1500      0.0000      0.0269    188.7156
  5669.2000      0.0000      0.0269    188.7156
  5669.2500      0.0000      0.0269    188.7156
  5669.3000      0.0000      0.0269    188.7156
  5669.3500      0.0000      0.0269    188.7156
  5669.4000      0.0000      0.0265    188.7225
  5669.4500      0.0000      0.0265    188.7225
  5669.5000      0.0000      0.0265    188.7225
  5669.5500      0.0000      0.0265    188.7225
  5669.6000      0.0000      0.0265    188.7225
  5669.6500      0.0000      0.0261    188.7292
  5669.7000      0.0000      0.0261    188.7292
  5669.7500      0.0000      0.0261    188.7292
  5669.8000      0.0000      0.0261    188.7292
  5669.8500      0.0000      0.0261    188.7292
  5669.9000      0.0000      0.0256    188.7357
  5669.9500      0.0000      0.0256    188.7357
  5670.0000      0.0000      0.0256    188.7357
  5670.0500      0.0000      0.0256    188.7357
  5670.1000      0.0000      0.0256    188.7357
  5670.1500      0.0000      0.0250    188.7420
  5670.2000      0.0000      0.0250    188.7420
  5670.2500      0.0000      0.0250    188.7420
  5670.3000      0.0000      0.0250    188.7420
  5670.3500      0.0000      0.0250    188.7420
  5670.4000      0.0000      0.0244    188.7480
  5670.4500      0.0000      0.0244    188.7480
  5670.5000      0.0000      0.0244    188.7480
  5670.5500      0.0000      0.0244    188.7480
  5670.6000      0.0000      0.0244    188.7480
  5670.6500      0.0000      0.0238    188.7540
  5670.7000      0.0000      0.0238    188.7540
  5670.7500      0.0000      0.0238    188.7540
  5670.8000      0.0000      0.0238    188.7540
  5670.8500      0.0000      0.0238    188.7540
  5670.9000      0.0000      0.0234    188.7598
  5670.9500      0.0000      0.0234    188.7598
  5671.0000      0.0000      0.0234    188.7598
  5671.0500      0.0000      0.0234    188.7598
  5671.1000      0.0000      0.0234    188.7598
  5671.1500      0.0000      0.0231    188.7656
  5671.2000      0.0000      0.0231    188.7656
  5671.2500      0.0000      0.0231    188.7656
  5671.3000      0.0000      0.0231    188.7656
  5671.3500      0.0000      0.0231    188.7656
  5671.4000      0.0000      0.0228    188.7713
  5671.4500      0.0000      0.0228    188.7713
  5671.5000      0.0000      0.0228    188.7713
  5671.5500      0.0000      0.0228    188.7713
  5671.6000      0.0000      0.0228    188.7713
  5671.6500      0.0000      0.0225    188.7769
  5671.7000      0.0000      0.0225    188.7769
  5671.7500      0.0000      0.0225    188.7769
  5671.8000      0.0000      0.0225    188.7769
  5671.8500      0.0000      0.0225    188.7769
  5671.9000      0.0000      0.0221    188.7826
  5671.9500      0.0000      0.0221    188.7826
  5672.0000      0.0000      0.0221    188.7826
  5672.0500      0.0000      0.0221    188.7826
  5672.1000      0.0000      0.0221    188.7826
  5672.1500      0.0000      0.0217    188.7882
  5672.2000      0.0000      0.0217    188.7882
  5672.2500      0.0000      0.0217    188.7882
  5672.3000      0.0000      0.0217    188.7882
  5672.3500      0.0000      0.0217    188.7882
  5672.4000      0.0000      0.0214    188.7937
  5672.4500      0.0000      0.0214    188.7937
  5672.5000      0.0000      0.0214    188.7937
  5672.5500      0.0000      0.0214    188.7937
  5672.6000      0.0000      0.0214    188.7937
  5672.6500      0.0000      0.0212    188.7990
  5672.7000      0.0000      0.0212    188.7990
  5672.7500      0.0000      0.0212    188.7990
  5672.8000      0.0000      0.0212    188.7990
  5672.8500      0.0000      0.0212    188.7990
  5672.9000      0.0000      0.0211    188.8041
  5672.9500      0.0000      0.0211    188.8041
  5673.0000      0.0000      0.0211    188.8041
  5673.0500      0.0000      0.0211    188.8041
  5673.1000      0.0000      0.0211    188.8041
  5673.1500      0.0000      0.0214    188.8090
  5673.2000      0.0000      0.0214    188.8090
  5673.2500      0.0000      0.0214    188.8090
  5673.3000      0.0000      0.0214    188.8090
  5673.3500      0.0000      0.0214    188.8090
  5673.4000      0.0000      0.0219    188.8140
  5673.4500      0.0000      0.0219    188.8140
  5673.5000      0.0000      0.0219    188.8140
  5673.5500      0.0000      0.0219    188.8140
  5673.6000      0.0000      0.0219    188.8140
  5673.6500      0.0000      0.0228    188.8192
  5673.7000      0.0000      0.0228    188.8192
  5673.7500      0.0000      0.0228    188.8192
  5673.8000      0.0000      0.0228    188.8192
  5673.8500      0.0000      0.0228    188.8192
  5673.9000      0.0000      0.0238    188.8249
  5673.9500      0.0000      0.0238    188.8249
  5674.0000      0.0000      0.0238    188.8249
  5674.0500      0.0000      0.0238    188.8249
  5674.1000      0.0000      0.0238    188.8249
  5674.1500      0.0000      0.0248    188.8310
  5674.2000      0.0000      0.0248    188.8310
  5674.2500      0.0000      0.0248    188.8310
  5674.3000      0.0000      0.0248    188.8310
  5674.3500      0.0000      0.0248    188.8310
  5674.4000      0.0000      0.0259    188.8376
  5674.4500      0.0000      0.0259    188.8376
  5674.5000      0.0000      0.0259    188.8376
  5674.5500      0.0000      0.0259    188.8376
  5674.6000      0.0000      0.0259    188.8376
  5674.6500      0.0000      0.0267    188.8445
  5674.7000      0.0000      0.0267    188.8445
  5674.7500      0.0000      0.0267    188.8445
  5674.8000      0.0000      0.0267    188.8445
  5674.8500      0.0000      0.0267    188.8445
  5674.9000      0.0000      0.0273    188.8516
  5674.9500      0.0000      0.0273    188.8516
  5675.0000      0.0000      0.0273    188.8516
  5675.0500      0.0000      0.0273    188.8516
  5675.1000      0.0000      0.0273    188.8516
  5675.1500      0.0000      0.0275    188.8587
  5675.2000      0.0000      0.0275    188.8587
  5675.2500      0.0000      0.0275    188.8587
  5675.3000      0.0000      0.0275    188.8587
  5675.3500      0.0000      0.0275    188.8587
  5675.4000      0.0000      0.0272    188.8657
  5675.4500      0.0000      0.0272    188.8657
  5675.5000      0.0000      0.0272    188.8657
  5675.5500      0.0000      0.0272    188.8657
  5675.6000      0.0000      0.0272    188.8657
  5675.6500      0.0000      0.0264    188.8727
  5675.7000      0.0000      0.0264    188.8727
  5675.7500      0.0000      0.0264    188.8727
  5675.8000      0.0000      0.0264    188.8727
  5675.8500      0.0000      0.0264    188.8727
  5675.9000      0.0000      0.0253    188.8795
  5675.9500      0.0000      0.0253    188.8795
  5676.0000      0.0000      0.0253    188.8795
  5676.0500      0.0000      0.0253    188.8795
  5676.1000      0.0000      0.0253    188.8795
  5676.1500      0.0000      0.0238    188.8860
  5676.2000      0.0000      0.0238    188.8860
  5676.2500      0.0000      0.0238    188.8860
  5676.3000      0.0000      0.0238    188.8860
  5676.3500      0.0000      0.0238    188.8860
  5676.4000      0.0000      0.0221    188.8920
  5676.4500      0.0000      0.0221    188.8920
  5676.5000      0.0000      0.0221    188.8920
  5676.5500      0.0000      0.0221    188.8920
  5676.6000      0.0000      0.0221    188.8920
  5676.6500      0.0000      0.0205    188.8974
  5676.7000      0.0000      0.0205    188.8974
  5676.7500      0.0000      0.0205    188.8974
  5676.8000      0.0000      0.0205    188.8974
  5676.8500      0.0000      0.0205    188.8974
  5676.9000      0.0000      0.0190    188.9021
