~Version Information
VERS.                      2.0: CWLS Log ASCII Standard - VERSION 2.0
WRAP.                       NO: One line per depth step
~Well Information Block
STRT.FT              4700.0000: 
STOP.FT              6519.9000: 
STEP.FT                 0.0500: 
NULL.                -999.2500: 
COMP.               HESS CORP.: COMPANY
WELL.                TMU 0-143: WELL
FLD.                     TIOGA: FIELD
LOC.                          : LOCATION
CNTY.                MOUNTRAIL: COUNTY
SRVC.                         : SERVICE COMPANY
DATE.          Thu Apr 23 14-09-17 2009: LOG DATE
UWI.                          : UNIQUE WELL ID
STAT.                       ND: STATE
~Curve Information Block
DEPT.FT            0 000 00 00: Depth
CCL.                          : Casing Collar Locator
DTMP.degF                     : Delta Temperature
TEMP.degF                     : Downhole Temperature
~Parameter Information Block
~A  Depth       CCL         DTMP        TEMP    
# ...
  6027.6500      0.0000      0.0136    195.8070
  6027.7000      0.0000      0.0136    195.8070
  6027.7500      0.0000      0.0136    195.8070
  6027.8000      0.0000      0.0136    195.8070
  6027.8500      0.0000      0.0136    195.8070
  6027.9000      0.0000      0.0125    195.8103
  6027.9500      0.0000      0.0125    195.8103
  6028.0000      0.0000      0.0125    195.8103
  6028.0500      0.0000      0.0125    195.8103
  6028.1000      0.0000      0.0125    195.8103
  6028.1500      0.0000      0.0117    195.8133
  6028.2000      0.0000      0.0117    195.8133
  6028.2500      0.0000      0.0117    195.8133
  6028.3000      0.0000      0.0117    195.8133
  6028.3500      0.0000      0.0117    195.8133
  6028.4000      0.0000      0.0111    195.8160
  6028.4500      0.0000      0.0111    195.8160
  6028.5000      0.0000      0.0111    195.8160
  6028.5500      0.0000      0.0111    195.8160
  6028.6000      0.0000      0.0111    195.8160
  6028.6500      0.0000      0.0107    195.8184
  6028.7000      0.0000      0.0107    195.8184
  6028.7500      0.0000      0.0107    195.8184
  6028.8000      0.0000      0.0107    195.8184
  6028.8500      0.0000      0.0107    195.8184
  6028.9000      0.0000      0.0106    195.8207
  6028.9500      0.0000      0.0106    195.8207
  6029.0000      0.0000      0.0106    195.8207
  6029.0500      0.0000      0.0106    195.8207
  6029.1000      0.0000      0.0106    195.8207
  6029.1500      0.0000      0.0107    195.8230
  6029.2000      0.0000      0.0107    195.8230
  6029.2500      0.0000      0.0107    195.8230
  6029.3000      0.0000      0.0107    195.8230
  6029.3500      0.0000      0.0107    195.8230
  6029.4000      0.0000      0.0111    195.8256
  6029.4500      0.0000      0.0111    195.8256
  6029.5000      0.0000      0.0111    195.8256
  6029.5500      0.0000      0.0111    195.8256
  6029.6000      0.0000      0.0111    195.8256
  6029.6500      0.0000      0.0117    195.8284
  6029.7000      0.0000      0.0117    195.8284
  6029.7500      0.0000      0.0117    195.8284
  6029.8000      0.0000      0.0117    195.8284
  6029.8500      0.0000      0.0117    195.8284
  6029.9000      0.0000      0.0125    195.8315
  6029.9500      0.0000      0.0125    195.8315
  6030.0000      0.0000      0.0125    195.8315
  6030.0500      0.0000      0.0125    195.8315
  6030.1000      0.0000      0.0125    195.8315
  6030.1500      0.0000      0.0133    195.8347
  6030.2000      0.0000      0.0133    195.8347
  6030.2500      0.0000      0.0133    195.8347
  6030.3000      0.0000      0.0133    195.8347
  6030.3500      0.0000      0.0133    195.8347
  6030.4000      0.0000      0.0142    195.8382
  6030.4500      0.0000      0.0142    195.8382
  6030.5000      0.0000      0.0142    195.8382
  6030.5500      0.0000      0.0142    195.8382
  6030.6000      0.0000      0.0142    195.8382
  6030.6500      0.0000      0.0149    195.8418
  6030.7000      0.0000      0.0149    195.8418
  6030.7500      0.0000      0.0149    195.8418
  6030.8000      0.0000      0.0149    195.8418
  6030.8500      0.0000      0.0149    195.8418
  6030.9000      0.0000      0.0157    195.8456
  6030.9500      0.0000      0.0157    195.8456
  6031.0000      0.0000      0.0157    195.8456
  6031.0500      0.0000      0.0157    195.8456
  6031.1000      0.0000      0.0157    195.8456
  6031.1500      0.0000      0.0164    195.8497
  6031.2000      0.0000      0.0164    195.8497
  6031.2500      0.0000      0.0164    195.8497
  6031.3000      0.0000      0.0164    195.8497
  6031.3500      0.0000      0.0164    195.8497
  6031.4000      0.0000      0.0173    195.8539
  6031.4500      0.0000      0.0173    195.8539
  6031.5000      0.0000      0.0173    195.8539
  6031.5500      0.0000      0.0173    195.8539
  6031.6000      0.0000      0.0173    195.8539
  6031.6500      0.0000      0.0181    195.8583
  6031.7000      0.0000      0.0181    195.8583
  6031.7500      0.0000      0.0181    195.8583
  6031.8000      0.0000      0.0181    195.8583
  6031.8500      0.0000      0.0181    195.8583
  6031.9000      0.0000      0.0190    195.8629
  6031.9500      0.0000      0.0190    195.8629
  6032.0000      0.0000      0.0190    195.8629
  6032.0500      0.0000      0.0190    195.8629
  6032.1000      0.0000      0.0190    195.8629
  6032.1500      0.0000      0.0198    195.8676
  6032.2000      0.0000      0.0198    195.8676
  6032.2500      0.0000      0.0198    195.8676
  6032.3000      0.0000      0.0198    195.8676
  6032.3500      0.0000      0.0198    195.8676
  6032.4000      0.0000      0.0206    195.8727
  6032.4500      0.0000      0.0206    195.8727
  6032.5000      0.0000      0.0206    195.8727
  6032.5500      0.0000      0.0206    195.8727
  6032.6000      0.0000      0.0206    195.8727
  6032.6500      0.0000      0.0212    195.8781
  6032.7000      0.0000      0.0212    195.8781
  6032.7500      0.0000      0.0212    195.8781
  6032.8000      0.0000      0.0212    195.8781
  6032.8500      0.0000      0.0212    195.8781
  6032.9000      0.0000      0.0216    195.8836
  6032.9500      0.0000      0.0216    195.8836
  6033.0000      0.0000      0.0216    195.8836
  6033.0500      0.0000      0.0216    195.8836
  6033.1000      0.0000      0.0216    195.8836
  6033.1500      0.0000      0.0217    195.8894
  6033.2000      0.0000      0.0217    195.8894
  6033.2500      0.0000      0.0217    195.8894
  6033.3000      0.0000      0.0217    195.8894
  6033.3500      0.0000      0.0217    195.8894
  6033.4000      0.0000      0.0214    195.8951
  6033.4500      0.0000      0.0214    195.8951
  6033.5000      0.0000      0.0214    195.8951
  6033.5500      0.0000      0.0214    195.8951
  6033.6000      0.0000      0.0214    195.8951
  6033.6500      0.0000      0.0207    195.9007
  6033.7000      0.0000      0.0207    195.9007
  6033.7500      0.0000      0.0207    195.9007
  6033.8000      0.0000      0.0207    195.9007
  6033.8500      0.0000      0.0207    195.9007
  6033.9000      0.0000      0.0196    195.9061
  6033.9500      0.0000      0.0196    195.9061
  6034.0000      0.0000      0.0196    195.9061
  6034.0500      0.0000      0.0196    195.9061
  6034.1000      0.0000      0.0196    195.9061
  6034.1500      0.0000      0.0183    195.9110
  6034.2000      0.0000      0.0183    195.9110
  6034.2500      0.0000      0.0183    195.9110
  6034.3000      0.0000      0.0183    195.9110
  6034.3500      0.0000      0.0183    195.9110
  6034.4000      0.0000      0.0169    195.9155
  6034.4500      0.0000      0.0169    195.9155
  6034.5000      0.0000      0.0169    195.9155
  6034.5500      0.0000      0.0169    195.9155
  6034.6000      0.0000      0.0169    195.9155
  6034.6500      0.0000      0.0154    195.9194
  6034.7000      0.0000      0.0154    195.9194
  6034.7500      0.0000      0.0154    195.9194
  6034.8000      0.0000      0.0154    195.9194
  6034.8500      0.0000      0.0154    195.9194
  6034.9000      0.0000      0.0141    195.9229
  6034.9500      0.0000      0.0141    195.9229
  6035.0000      0.0000      0.0141    195.9229
  6035.0500      0.0000      0.0141    195.9229
  6035.1000      0.0000      0.0141    195.9229
  6035.1500      0.0000      0.0130    195.9260
  6035.2000      0.0000      0.0130    195.9260
  6035.2500      0.0000      0.0130    195.9260
  6035.3000      0.0000      0.0130    195.9260
  6035.3500      0.0000      0.0130    195.9260
  6035.4000      0.0000      0.0122    195.9289
  6035.4500      0.0000      0.0122    195.9289
  6035.5000      0.0000      0.0122    195.9289
  6035.5500      0.0000      0.0122    195.9289
  6035.6000      0.0000      0.0122    195.9289
  6035.6500      0.0000      0.0117    195.9316
  6035.7000      0.0000      0.0117    195.9316
  6035.7500      0.0000      0.0117    195.9316
  6035.8000      0.0000      0.0117    195.9316
  6035.8500      0.0000      0.0117    195.9316
  6035.9000      0.0000      0.0115    195.9343
  6035.9500      0.0000      0.0115    195.9343
