~Version Information
VERS.                      2.0: CWLS Log ASCII Standard - VERSION 2.0
WRAP.                       NO: One line per depth step
~Well Information Block
STRT.FT              4700.0000: 
STOP.FT              6519.9000: 
STEP.FT                 0.0500: 
NULL.                -999.2500: 
COMP.               HESS CORP.: COMPANY
WELL.                TMU 0-143: WELL
FLD.                     TIOGA: FIELD
LOC.                          : LOCATION
CNTY.                MOUNTRAIL: COUNTY
SRVC.                         : SERVICE COMPANY
DATE.          Thu Apr 23 14-09-17 2009: LOG DATE
UWI.                          : UNIQUE WELL ID
STAT.                       ND: STATE
~Curve Information Block
DEPT.FT            0 000 00 00: Depth
CCL.                          : Casing Collar Locator
DTMP.degF                     : Delta Temperature
TEMP.degF                     : Downhole Temperature
~Parameter Information Block
~A  Depth       CCL         DTMP        TEMP    
  4700.0000      0.0000      0.0285    168.0764
  4700.0500      0.0000      0.0285    168.0764
  4700.1000      0.0000      0.0285    168.0764
  4700.1500      0.0000      0.0295    168.0832
  4700.2000      0.0000      0.0295    168.0832
  4700.2500      0.0000      0.0295    168.0832
  4700.3000      0.0000      0.0295    168.0832
  4700.3500      0.0000      0.0295    168.0832
  4700.4000      0.0000      0.0307    168.0906
  4700.4500      0.0000      0.0307    168.0906
  4700.5000      0.0000      0.0307    168.0906
  4700.5500      0.0000      0.0307    168.0906
  4700.6000      0.0000      0.0307    168.0906
  4700.6500      0.0000      0.0320    168.0987
  4700.7000      0.0000      0.0320    168.0987
  4700.7500      0.0000      0.0320    168.0987
  4700.8000      0.0000      0.0320    168.0987
  4700.8500      0.0000      0.0320    168.0987
  4700.9000      0.0000      0.0331    168.1073
  4700.9500      0.0000      0.0331    168.1073
  4701.0000      0.0000      0.0331    168.1073
  4701.0500      0.0000      0.0331    168.1073
  4701.1000      0.0000      0.0331    168.1073
  4701.1500      0.0000      0.0341    168.1162
  4701.2000      0.0000      0.0341    168.1162
  4701.2500      0.0000      0.0341    168.1162
  4701.3000      0.0000      0.0341    168.1162
  4701.3500      0.0000      0.0341    168.1162
  4701.4000      0.0000      0.0348    168.1252
  4701.4500      0.0000      0.0348    168.1252
  4701.5000      0.0000      0.0348    168.1252
  4701.5500      0.0000      0.0348    168.1252
  4701.6000      0.0000      0.0348    168.1252
  4701.6500      0.0000      0.0353    168.1340
  4701.7000      0.0000      0.0353    168.1340
  4701.7500      0.0000      0.0353    168.1340
  4701.8000      0.0000      0.0353    168.1340
  4701.8500      0.0000      0.0353    168.1340
  4701.9000      0.0000      0.0358    168.1427
  4701.9500      0.0000      0.0358    168.1427
  4702.0000      0.0000      0.0358    168.1427
  4702.0500      0.0000      0.0358    168.1427
  4702.1000      0.0000      0.0358    168.1427
  4702.1500      0.0000      0.0363    168.1513
  4702.2000      0.0000      0.0363    168.1513
  4702.2500      0.0000      0.0363    168.1513
  4702.3000      0.0000      0.0363    168.1513
  4702.3500      0.0000      0.0363    168.1513
  4702.4000      0.0000      0.0371    168.1601
  4702.4500      0.0000      0.0371    168.1601
  4702.5000      0.0000      0.0371    168.1601
  4702.5500      0.0000      0.0371    168.1601
  4702.6000      0.0000      0.0371    168.1601
  4702.6500      0.0000      0.0380    168.1693
  4702.7000      0.0000      0.0380    168.1693
  4702.7500      0.0000      0.0380    168.1693
  4702.8000      0.0000      0.0380    168.1693
  4702.8500      0.0000      0.0380    168.1693
  4702.9000      0.0000      0.0389    168.1789
  4702.9500      0.0000      0.0389    168.1789
  4703.0000      0.0000      0.0389    168.1789
  4703.0500      0.0000      0.0389    168.1789
  4703.1000      0.0000      0.0389    168.1789
  4703.1500      0.0000      0.0397    168.1889
  4703.2000      0.0000      0.0397    168.1889
  4703.2500      0.0000      0.0397    168.1889
  4703.3000      0.0000      0.0397    168.1889
  4703.3500      0.0000      0.0397    168.1889
  4703.4000      0.0000      0.0402    168.1993
  4703.4500      0.0000      0.0402    168.1993
  4703.5000      0.0000      0.0402    168.1993
  4703.5500      0.0000      0.0402    168.1993
  4703.6000      0.0000      0.0402    168.1993
  4703.6500      0.0000      0.0402    168.2100
  4703.7000      0.0000      0.0402    168.2100
  4703.7500      0.0000      0.0402    168.2100
  4703.8000      0.0000      0.0402    168.2100
  4703.8500      0.0000      0.0402    168.2100
  4703.9000      0.0000      0.0398    168.2205
  4703.9500      0.0000      0.0398    168.2205
  4704.0000      0.0000      0.0398    168.2205
  4704.0500      0.0000      0.0398    168.2205
  4704.1000      0.0000      0.0398    168.2205
  4704.1500      0.0000      0.0391    168.2308
  4704.2000      0.0000      0.0391    168.2308
  4704.2500      0.0000      0.0391    168.2308
  4704.3000      0.0000      0.0391    168.2308
  4704.3500      0.0000      0.0391    168.2308
  4704.4000      0.0000      0.0384    168.2406
  4704.4500      0.0000      0.0384    168.2406
  4704.5000      0.0000      0.0384    168.2406
  4704.5500      0.0000      0.0384    168.2406
  4704.6000      0.0000      0.0384    168.2406
  4704.6500      0.0000      0.0379    168.2498
  4704.7000      0.0000      0.0379    168.2498
  4704.7500      0.0000      0.0379    168.2498
  4704.8000      0.0000      0.0379    168.2498
  4704.8500      0.0000      0.0379    168.2498
  4704.9000      0.0000      0.0379    168.2585
  4704.9500      0.0000      0.0379    168.2585
  4705.0000      0.0000      0.0379    168.2585
  4705.0500      0.0000      0.0379    168.2585
  4705.1000      0.0000      0.0379    168.2585
  4705.1500      0.0000      0.0384    168.2672
  4705.2000      0.0000      0.0384    168.2672
  4705.2500      0.0000      0.0384    168.2672
  4705.3000      0.0000      0.0384    168.2672
  4705.3500      0.0000      0.0384    168.2672
  4705.4000      0.0000      0.0393    168.2761
  4705.4500      0.0000      0.0393    168.2761
  4705.5000      0.0000      0.0393    168.2761
  4705.5500      0.0000      0.0393    168.2761
  4705.6000      0.0000      0.0393    168.2761
  4705.6500      0.0000      0.0404    168.2858
  4705.7000      0.0000      0.0404    168.2858
  4705.7500      0.0000      0.0404    168.2858
  4705.8000      0.0000      0.0404    168.2858
  4705.8500      0.0000      0.0404    168.2858
  4705.9000      0.0000      0.0416    168.2963
  4705.9500      0.0000      0.0416    168.2963
  4706.0000      0.0000      0.0416    168.2963
  4706.0500      0.0000      0.0416    168.2963
  4706.1000      0.0000      0.0416    168.2963
  4706.1500      0.0000      0.0426    168.3075
  4706.2000      0.0000      0.0426    168.3075
  4706.2500      0.0000      0.0426    168.3075
  4706.3000      0.0000      0.0426    168.3075
  4706.3500      0.0000      0.0426    168.3075
  4706.4000      0.0000      0.0430    168.3191
  4706.4500      0.0000      0.0430    168.3191
  4706.5000      0.0000      0.0430    168.3191
  4706.5500      0.0000      0.0430    168.3191
  4706.6000      0.0000      0.0430    168.3191
  4706.6500      0.0000      0.0427    168.3306
  4706.7000      0.0000      0.0427    168.3306
  4706.7500      0.0000      0.0427    168.3306
  4706.8000      0.0000      0.0427    168.3306
  4706.8500      0.0000      0.0427    168.3306
  4706.9000      0.0000      0.0416    168.3418
  4706.9500      0.0000      0.0416    168.3418
  4707.0000      0.0000      0.0416    168.3418
  4707.0500      0.0000      0.0416    168.3418
  4707.1000      0.0000      0.0416    168.3418
  4707.1500      0.0000      0.0397    168.3524
  4707.2000      1.1417      0.0397    168.3524
  4707.2500      1.3367      0.0397    168.3524
  4707.3000     -2.1231      0.0397    168.3524
  4707.3500     -3.9392      0.0397    168.3524
  4707.4000     -1.2585      0.0372    168.3622
  4707.4500      1.1172      0.0372    168.3622
  4707.5000      4.7177      0.0372    168.3622
  4707.5500      2.8247      0.0372    168.3622
  4707.6000     -1.1954      0.0372    168.3622
  4707.6500     -1.8265      0.0343    168.3712
  4707.7000     -1.3519      0.0343    168.3712
  4707.7500      0.0000      0.0343    168.3712
  4707.8000      0.0000      0.0343    168.3712
  4707.8500      0.0000      0.0343    168.3712
  4707.9000      0.0000      0.0313    168.3794
  4707.9500      0.0000      0.0313    168.3794
  4708.0000      0.0000      0.0313    168.3794
  4708.0500      0.0000      0.0313    168.3794
  4708.1000      0.0000      0.0313    168.3794
  4708.1500      0.0000      0.0284    168.3869
  4708.2000      0.0000      0.0284    168.3869
  4708.2500      0.0000      0.0284    168.3869
  4708.3000      0.0000      0.0284    168.3869
