~Version Information
VERS.                      2.0: CWLS Log ASCII Standard - VERSION 2.0
WRAP.                       NO: One line per depth step
~Well Information Block
STRT.FT              4700.0000: 
STOP.FT              6519.9000: 
STEP.FT                 0.0500: 
NULL.                -999.2500: 
COMP.               HESS CORP.: COMPANY
WELL.                TMU 0-143: WELL
FLD.                     TIOGA: FIELD
LOC.                          : LOCATION
CNTY.                MOUNTRAIL: COUNTY
SRVC.                         : SERVICE COMPANY
DATE.          Thu Apr 23 14-09-17 2009: LOG DATE
UWI.                          : UNIQUE WELL ID
STAT.                       ND: STATE
~Curve Information Block
DEPT.FT            0 000 00 00: Depth
CCL.                          : Casing Collar Locator
DTMP.degF                     : Delta Temperature
TEMP.degF                     : Downhole Temperature
~Parameter Information Block
~A  Depth       CCL         DTMP        TEMP    
# ...
  5785.5000      0.0000      0.0202    191.3650
  5785.5500      0.0000      0.0202    191.3650
  5785.6000      0.0000      0.0202    191.3650
  5785.6500      0.0000      0.0198    191.3699
  5785.7000      0.0000      0.0198    191.3699
  5785.7500      0.0000      0.0198    191.3699
  5785.8000      0.0000      0.0198    191.3699
  5785.8500      0.0000      0.0198    191.3699
  5785.9000      0.0000      0.0194    191.3748
  5785.9500      0.0000      0.0194    191.3748
  5786.0000      0.0000      0.0194    191.3748
  5786.0500      0.0000      0.0194    191.3748
  5786.1000      0.0000      0.0194    191.3748
  5786.1500      0.0000      0.0191    191.3796
  5786.2000      0.0000      0.0191    191.3796
  5786.2500      0.0000      0.0191    191.3796
  5786.3000      0.0000      0.0191    191.3796
  5786.3500      0.0000      0.0191    191.3796
  5786.4000      0.0000      0.0189    191.3843
  5786.4500      0.0000      0.0189    191.3843
  5786.5000      0.0000      0.0189    191.3843
  5786.5500      0.0000      0.0189    191.3843
  5786.6000      0.0000      0.0189    191.3843
  5786.6500      0.0000      0.0187    191.3890
  5786.7000      0.0000      0.0187    191.3890
  5786.7500      0.0000      0.0187    191.3890
  5786.8000      0.0000      0.0187    191.3890
  5786.8500      0.0000      0.0187    191.3890
  5786.9000      0.0000      0.0184    191.3937
  5786.9500      0.0000      0.0184    191.3937
  5787.0000      0.0000      0.0184    191.3937
  5787.0500      0.0000      0.0184    191.3937
  5787.1000      0.0000      0.0184    191.3937
  5787.1500      0.0000      0.0182    191.3983
  5787.2000      0.0000      0.0182    191.3983
  5787.2500      0.0000      0.0182    191.3983
  5787.3000      0.0000      0.0182    191.3983
  5787.3500      0.0000      0.0182    191.3983
  5787.4000      0.0000      0.0180    191.4028
  5787.4500      0.0000      0.0180    191.4028
  5787.5000      0.0000      0.0180    191.4028
  5787.5500      0.0000      0.0180    191.4028
  5787.6000      0.0000      0.0180    191.4028
  5787.6500      0.0000      0.0178    191.4073
  5787.7000      0.0000      0.0178    191.4073
  5787.7500      0.0000      0.0178    191.4073
  5787.8000      0.0000      0.0178    191.4073
  5787.8500      0.0000      0.0178    191.4073
  5787.9000      0.0000      0.0178    191.4117
  5787.9500      0.0000      0.0178    191.4117
  5788.0000      0.0000      0.0178    191.4117
  5788.0500      0.0000      0.0178    191.4117
  5788.1000      0.0000      0.0178    191.4117
  5788.1500      0.0000      0.0179    191.4160
  5788.2000      0.0000      0.0179    191.4160
  5788.2500      0.0000      0.0179    191.4160
  5788.3000      0.0000      0.0179    191.4160
  5788.3500      0.0000      0.0179    191.4160
  5788.4000      0.0000      0.0182    191.4203
  5788.4500      0.0000      0.0182    191.4203
  5788.5000      0.0000      0.0182    191.4203
  5788.5500      0.0000      0.0182    191.4203
  5788.6000      0.0000      0.0182    191.4203
  5788.6500      0.0000      0.0186    191.4247
  5788.7000      0.0000      0.0186    191.4247
  5788.7500      0.0000      0.0186    191.4247
  5788.8000      0.0000      0.0186    191.4247
  5788.8500      0.0000      0.0186    191.4247
  5788.9000      0.0000      0.0192    191.4293
  5788.9500      0.0000      0.0192    191.4293
  5789.0000      0.0000      0.0192    191.4293
  5789.0500      0.0000      0.0192    191.4293
  5789.1000      0.0000      0.0192    191.4293
  5789.1500      0.0000      0.0199    191.4341
  5789.2000      0.0000      0.0199    191.4341
  5789.2500      0.0000      0.0199    191.4341
  5789.3000      0.0000      0.0199    191.4341
  5789.3500      0.0000      0.0199    191.4341
  5789.4000      0.0000      0.0206    191.4391
  5789.4500      0.0000      0.0206    191.4391
  5789.5000      0.0000      0.0206    191.4391
  5789.5500      0.0000      0.0206    191.4391
  5789.6000      0.0000      0.0206    191.4391
  5789.6500      0.0000      0.0211    191.4445
  5789.7000      0.0000      0.0211    191.4445
  5789.7500      0.0000      0.0211    191.4445
  5789.8000      0.0000      0.0211    191.4445
  5789.8500      0.0000      0.0211    191.4445
  5789.9000      0.0000      0.0213    191.4501
  5789.9500      0.0000      0.0213    191.4501
  5790.0000      0.0000      0.0213    191.4501
  5790.0500      0.0000      0.0213    191.4501
  5790.1000      0.0000      0.0213    191.4501
  5790.1500      0.0000      0.0214    191.4558
  5790.2000      0.0000      0.0214    191.4558
  5790.2500      0.0000      0.0214    191.4558
  5790.3000      0.0000      0.0214    191.4558
  5790.3500      0.0000      0.0214    191.4558
  5790.4000      0.0000      0.0212    191.4614
  5790.4500      0.0000      0.0212    191.4614
  5790.5000      0.0000      0.0212    191.4614
  5790.5500      0.0000      0.0212    191.4614
  5790.6000      0.0000      0.0212    191.4614
  5790.6500      0.0000      0.0207    191.4668
  5790.7000      0.0000      0.0207    191.4668
  5790.7500      0.0000      0.0207    191.4668
  5790.8000      0.0000      0.0207    191.4668
  5790.8500      0.0000      0.0207    191.4668
  5790.9000      0.0000      0.0200    191.4720
  5790.9500      0.0000      0.0200    191.4720
  5791.0000      0.0000      0.0200    191.4720
  5791.0500      0.0000      0.0200    191.4720
  5791.1000      0.0000      0.0200    191.4720
  5791.1500      0.0000      0.0192    191.4769
  5791.2000      0.0000      0.0192    191.4769
  5791.2500      0.0000      0.0192    191.4769
  5791.3000      0.0000      0.0192    191.4769
  5791.3500      0.0000      0.0192    191.4769
  5791.4000      0.0000      0.0185    191.4815
  5791.4500      0.0000      0.0185    191.4815
  5791.5000      0.0000      0.0185    191.4815
  5791.5500      0.0000      0.0185    191.4815
  5791.6000      0.0000      0.0185    191.4815
  5791.6500      0.0000      0.0180    191.4859
  5791.7000      0.0000      0.0180    191.4859
  5791.7500      0.0000      0.0180    191.4859
  5791.8000      0.0000      0.0180    191.4859
  5791.8500      0.0000      0.0180    191.4859
  5791.9000      0.0000      0.0178    191.4901
  5791.9500      0.0000      0.0178    191.4901
  5792.0000      0.0000      0.0178    191.4901
  5792.0500      0.0000      0.0178    191.4901
  5792.1000      0.0000      0.0178    191.4901
  5792.1500      0.0000      0.0177    191.4943
  5792.2000      0.0000      0.0177    191.4943
  5792.2500      0.0000      0.0177    191.4943
  5792.3000      0.0000      0.0177    191.4943
  5792.3500      0.0000      0.0177    191.4943
  5792.4000      0.0000      0.0178    191.4985
  5792.4500      0.0000      0.0178    191.4985
  5792.5000      0.0000      0.0178    191.4985
  5792.5500      0.0000      0.0178    191.4985
  5792.6000      0.0000      0.0178    191.4985
  5792.6500      0.0000      0.0180    191.5029
  5792.7000      0.0000      0.0180    191.5029
  5792.7500      0.0000      0.0180    191.5029
  5792.8000      0.0000      0.0180    191.5029
  5792.8500      0.0000      0.0180    191.5029
  5792.9000      0.0000      0.0183    191.5075
  5792.9500      0.0000      0.0183    191.5075
  5793.0000      0.0000      0.0183    191.5075
  5793.0500      0.0000      0.0183    191.5075
  5793.1000      0.0000      0.0183    191.5075
  5793.1500      0.0000      0.0185    191.5123
  5793.2000      0.0000      0.0185    191.5123
  5793.2500      0.0000      0.0185    191.5123
  5793.3000      0.0000      0.0185    191.5123
  5793.3500      0.0000      0.0185    191.5123
  5793.4000      0.0000      0.0187    191.5171
  5793.4500      0.0000      0.0187    191.5171
  5793.5000      0.0000      0.0187    191.5171
  5793.5500      0.0000      0.0187    191.5171
  5793.6000      0.0000      0.0187    191.5171
  5793.6500      0.0000      0.0188    191.5219
  5793.7000      0.0000      0.0188    191.5219
  5793.7500      0.0000      0.0188    191.5219
  5793.8000      0.0000      0.0188    191.5219
