~Version Information
VERS.                      2.0: CWLS Log ASCII Standard - VERSION 2.0
WRAP.                       NO: One line per depth step
~Well Information Block
STRT.FT              4700.0000: 
STOP.FT              6519.9000: 
STEP.FT                 0.0500: 
NULL.                -999.2500: 
COMP.               HESS CORP.: COMPANY
WELL.                TMU 0-143: WELL
FLD.                     TIOGA: FIELD
LOC.                          : LOCATION
CNTY.                MOUNTRAIL: COUNTY
SRVC.                         : SERVICE COMPANY
DATE.          Thu Apr 23 14-09-17 2009: LOG DATE
UWI.                          : UNIQUE WELL ID
STAT.                       ND: STATE
~Curve Information Block
DEPT.FT            0 000 00 00: Depth
CCL.                          : Casing Collar Locator
DTMP.degF                     : Delta Temperature
TEMP.degF                     : Downhole Temperature
~Parameter Information Block
~A  Depth       CCL         DTMP        TEMP    
# ...
  6152.9000      0.0000      0.0186    197.3558
  6152.9500      0.0000      0.0186    197.3558
  6153.0000      0.0000      0.0186    197.3558
  6153.0500      0.0000      0.0186    197.3558
  6153.1000      0.0000      0.0186    197.3558
  6153.1500      0.0000      0.0184    197.3607
  6153.2000      0.0000      0.0184    197.3607
  6153.2500      0.0000      0.0184    197.3607
  6153.3000      0.0000      0.0184    197.3607
  6153.3500      0.0000      0.0184    197.3607
  6153.4000      0.0000      0.0179    197.3655
  6153.4500      0.0000      0.0179    197.3655
  6153.5000      0.0000      0.0179    197.3655
  6153.5500      0.0000      0.0179    197.3655
  6153.6000      0.0000      0.0179    197.3655
  6153.6500      0.0000      0.0172    197.3700
  6153.7000      0.0000      0.0172    197.3700
  6153.7500      0.0000      0.0172    197.3700
  6153.8000      0.0000      0.0172    197.3700
  6153.8500      0.0000      0.0172    197.3700
  6153.9000      0.0000      0.0162    197.3744
  6153.9500      0.0000      0.0162    197.3744
  6154.0000      0.0000      0.0162    197.3744
  6154.0500      0.0000      0.0162    197.3744
  6154.1000      0.0000      0.0162    197.3744
  6154.1500      0.0000      0.0151    197.3784
  6154.2000      0.0000      0.0151    197.3784
  6154.2500      0.0000      0.0151    197.3784
  6154.3000      0.0000      0.0151    197.3784
  6154.3500      0.0000      0.0151    197.3784
  6154.4000      0.0000      0.0140    197.3821
  6154.4500      0.0000      0.0140    197.3821
  6154.5000      0.0000      0.0140    197.3821
  6154.5500      0.0000      0.0140    197.3821
  6154.6000      0.0000      0.0140    197.3821
  6154.6500      0.0000      0.0130    197.3854
  6154.7000      0.0000      0.0130    197.3854
  6154.7500      0.0000      0.0130    197.3854
  6154.8000      0.0000      0.0130    197.3854
  6154.8500      0.0000      0.0130    197.3854
  6154.9000      0.0000      0.0123    197.3882
  6154.9500      0.0000      0.0123    197.3882
  6155.0000      0.0000      0.0123    197.3882
  6155.0500      0.0000      0.0123    197.3882
  6155.1000      0.0000      0.0123    197.3882
  6155.1500      0.0000      0.0117    197.3908
  6155.2000      0.0000      0.0117    197.3908
  6155.2500      0.0000      0.0117    197.3908
  6155.3000      0.0000      0.0117    197.3908
  6155.3500      0.0000      0.0117    197.3908
  6155.4000      0.0000      0.0114    197.3934
  6155.4500      0.0000      0.0114    197.3934
  6155.5000      0.0000      0.0114    197.3934
  6155.5500      0.0000      0.0114    197.3934
  6155.6000      0.0000      0.0114    197.3934
  6155.6500      0.0000      0.0111    197.3961
  6155.7000      0.0000      0.0111    197.3961
  6155.7500      0.0000      0.0111    197.3961
  6155.8000      0.0000      0.0111    197.3961
  6155.8500      0.0000      0.0111    197.3961
  6155.9000      0.0000      0.0111    197.3990
  6155.9500      0.0000      0.0111    197.3990
  6156.0000      0.0000      0.0111    197.3990
  6156.0500      0.0000      0.0111    197.3990
  6156.1000      0.0000      0.0111    197.3990
  6156.1500      0.0000      0.0112    197.4019
  6156.2000      0.0000      0.0112    197.4019
  6156.2500      0.0000      0.0112    197.4019
  6156.3000      0.0000      0.0112    197.4019
  6156.3500      0.0000      0.0112    197.4019
  6156.4000      0.0000      0.0117    197.4048
  6156.4500      0.0000      0.0117    197.4048
  6156.5000      0.0000      0.0117    197.4048
  6156.5500      0.0000      0.0117    197.4048
  6156.6000      0.0000      0.0117    197.4048
  6156.6500      0.0000      0.0124    197.4076
  6156.7000      0.0000      0.0124    197.4076
  6156.7500      0.0000      0.0124    197.4076
  6156.8000      0.0000      0.0124    197.4076
  6156.8500      0.0000      0.0124    197.4076
  6156.9000      0.0000      0.0133    197.4104
  6156.9500      0.0000      0.0133    197.4104
  6157.0000      0.0000      0.0133    197.4104
  6157.0500      0.0000      0.0133    197.4104
  6157.1000      0.0000      0.0133    197.4104
  6157.1500      0.0000      0.0143    197.4133
  6157.2000      0.0000      0.0143    197.4133
  6157.2500      0.0000      0.0143    197.4133
  6157.3000      0.0000      0.0143    197.4133
  6157.3500      0.0000      0.0143    197.4133
  6157.4000      0.0000      0.0154    197.4168
  6157.4500      0.0000      0.0154    197.4168
  6157.5000      0.0000      0.0154    197.4168
  6157.5500      0.0000      0.0154    197.4168
  6157.6000      0.0000      0.0154    197.4168
  6157.6500      0.0000      0.0165    197.4209
  6157.7000      0.0000      0.0165    197.4209
  6157.7500      0.0000      0.0165    197.4209
  6157.8000      0.0000      0.0165    197.4209
  6157.8500      0.0000      0.0165    197.4209
  6157.9000      0.0000      0.0175    197.4256
  6157.9500      0.0000      0.0175    197.4256
  6158.0000      0.0000      0.0175    197.4256
  6158.0500      0.0000      0.0175    197.4256
  6158.1000      0.0000      0.0175    197.4256
  6158.1500      0.0000      0.0182    197.4306
  6158.2000      0.0000      0.0182    197.4306
  6158.2500      0.0000      0.0182    197.4306
  6158.3000      0.0000      0.0182    197.4306
  6158.3500      0.0000      0.0182    197.4306
  6158.4000      0.0000      0.0185    197.4357
  6158.4500      0.0000      0.0185    197.4357
  6158.5000      0.0000      0.0185    197.4357
  6158.5500      0.0000      0.0185    197.4357
  6158.6000      0.0000      0.0185    197.4357
  6158.6500      0.0000      0.0184    197.4406
  6158.7000      0.0000      0.0184    197.4406
  6158.7500      0.0000      0.0184    197.4406
  6158.8000      0.0000      0.0184    197.4406
  6158.8500      0.0000      0.0184    197.4406
  6158.9000      0.0000      0.0177    197.4453
  6158.9500      0.0000      0.0177    197.4453
  6159.0000      0.0000      0.0177    197.4453
  6159.0500      0.0000      0.0177    197.4453
  6159.1000      0.0000      0.0177    197.4453
  6159.1500      0.0000      0.0168    197.4498
  6159.2000      0.0000      0.0168    197.4498
  6159.2500      0.0000      0.0168    197.4498
  6159.3000      0.0000      0.0168    197.4498
  6159.3500      0.0000      0.0168    197.4498
  6159.4000      0.0000      0.0156    197.4539
  6159.4500      0.0000      0.0156    197.4539
  6159.5000      0.0000      0.0156    197.4539
  6159.5500      0.0000      0.0156    197.4539
  6159.6000      0.0000      0.0156    197.4539
  6159.6500      0.0000      0.0144    197.4576
  6159.7000      0.0000      0.0144    197.4576
  6159.7500      0.0000      0.0144    197.4576
  6159.8000      0.0000      0.0144    197.4576
  6159.8500      0.0000      0.0144    197.4576
  6159.9000      0.0000      0.0132    197.4610
  6159.9500      0.0000      0.0132    197.4610
  6160.0000      0.0000      0.0132    197.4610
  6160.0500      0.0000      0.0132    197.4610
  6160.1000      0.0000      0.0132    197.4610
  6160.1500      0.0000      0.0122    197.4641
  6160.2000      0.0000      0.0122    197.4641
  6160.2500      0.0000      0.0122    197.4641
  6160.3000      0.0000      0.0122    197.4641
  6160.3500      0.0000      0.0122    197.4641
  6160.4000      0.0000      0.0114    197.4669
  6160.4500      0.0000      0.0114    197.4669
  6160.5000      0.0000      0.0114    197.4669
  6160.5500      0.0000      0.0114    197.4669
  6160.6000      0.0000      0.0114    197.4669
  6160.6500      0.0000      0.0110    197.4694
  6160.7000      0.0000      0.0110    197.4694
  6160.7500      0.0000      0.0110    197.4694
  6160.8000      0.0000      0.0110    197.4694
  6160.8500      0.0000      0.0110    197.4694
  6160.9000      0.0000      0.0109    197.4718
  6160.9500      0.0000      0.0109    197.4718
  6161.0000      0.0000      0.0109    197.4718
  6161.0500      0.0000      0.0109    197.4718
  6161.1000      0.0000      0.0109    197.4718
  6161.1500      0.0000      0.0111    197.4742
  6161.2000      0.0000      0.0111    197.4742
