~Version Information
VERS.                      2.0: CWLS Log ASCII Standard - VERSION 2.0
WRAP.                       NO: One line per depth step
~Well Information Block
STRT.FT              4700.0000: 
STOP.FT              6519.9000: 
STEP.FT                 0.0500: 
NULL.                -999.2500: 
COMP.               HESS CORP.: COMPANY
WELL.                TMU 0-143: WELL
FLD.                     TIOGA: FIELD
LOC.                          : LOCATION
CNTY.                MOUNTRAIL: COUNTY
SRVC.                         : SERVICE COMPANY
DATE.          Thu Apr 23 14-09-17 2009: LOG DATE
UWI.                          : UNIQUE WELL ID
STAT.                       ND: STATE
~Curve Information Block
DEPT.FT            0 000 00 00: Depth
CCL.                          : Casing Collar Locator
DTMP.degF                     : Delta Temperature
TEMP.degF                     : Downhole Temperature
~Parameter Information Block
~A  Depth       CCL         DTMP        TEMP    
# ...
  5426.4500      0.0000      0.0549    182.4838
  5426.5000      0.0000      0.0549    182.4838
  5426.5500      0.0000      0.0549    182.4838
  5426.6000      0.0000      0.0549    182.4838
  5426.6500      0.0000      0.0546    182.4990
  5426.7000      0.0000      0.0546    182.4990
  5426.7500      0.0000      0.0546    182.4990
  5426.8000      0.0000      0.0546    182.4990
  5426.8500      0.0000      0.0546    182.4990
  5426.9000      0.0000      0.0528    182.5135
  5426.9500      0.0000      0.0528    182.5135
  5427.0000      0.0000      0.0528    182.5135
  5427.0500      0.0000      0.0528    182.5135
  5427.1000      0.0000      0.0528    182.5135
  5427.1500      0.0000      0.0499    182.5269
  5427.2000      0.0000      0.0499    182.5269
  5427.2500      0.0000      0.0499    182.5269
  5427.3000      0.0000      0.0499    182.5269
  5427.3500      0.0000      0.0499    182.5269
  5427.4000      0.0000      0.0461    182.5389
  5427.4500      0.0000      0.0461    182.5389
  5427.5000      0.0000      0.0461    182.5389
  5427.5500      0.0000      0.0461    182.5389
  5427.6000      0.0000      0.0461    182.5389
  5427.6500      0.0000      0.0418    182.5498
  5427.7000      0.0000      0.0418    182.5498
  5427.7500      0.0000      0.0418    182.5498
  5427.8000      0.0000      0.0418    182.5498
  5427.8500      0.0000      0.0418    182.5498
  5427.9000      0.0000      0.0375    182.5596
  5427.9500      0.0000      0.0375    182.5596
  5428.0000      0.0000      0.0375    182.5596
  5428.0500      0.0000      0.0375    182.5596
  5428.1000      0.0000      0.0375    182.5596
  5428.1500      0.0000      0.0334    182.5683
  5428.2000      0.0000      0.0334    182.5683
  5428.2500      0.0000      0.0334    182.5683
  5428.3000      0.0000      0.0334    182.5683
  5428.3500      0.0000      0.0334    182.5683
  5428.4000      0.0000      0.0296    182.5760
  5428.4500      0.0000      0.0296    182.5760
  5428.5000      0.0000      0.0296    182.5760
  5428.5500      0.0000      0.0296    182.5760
  5428.6000      0.0000      0.0296    182.5760
  5428.6500      0.0000      0.0264    182.5827
  5428.7000      0.0000      0.0264    182.5827
  5428.7500      0.0000      0.0264    182.5827
  5428.8000      0.0000      0.0264    182.5827
  5428.8500      0.0000      0.0264    182.5827
  5428.9000      0.0000      0.0236    182.5885
  5428.9500      0.0000      0.0236    182.5885
  5429.0000      0.0000      0.0236    182.5885
  5429.0500      0.0000      0.0236    182.5885
  5429.1000      0.0000      0.0236    182.5885
  5429.1500      0.0000      0.0212    182.5936
  5429.2000      0.0000      0.0212    182.5936
  5429.2500      0.0000      0.0212    182.5936
  5429.3000      0.0000      0.0212    182.5936
  5429.3500      0.0000      0.0212    182.5936
  5429.4000      0.0000      0.0192    182.5982
  5429.4500      0.0000      0.0192    182.5982
  5429.5000      0.0000      0.0192    182.5982
  5429.5500      0.0000      0.0192    182.5982
  5429.6000      0.0000      0.0192    182.5982
  5429.6500      0.0000      0.0176    182.6026
  5429.7000      0.0000      0.0176    182.6026
  5429.7500      0.0000      0.0176    182.6026
  5429.8000      0.0000      0.0176    182.6026
  5429.8500      0.0000      0.0176    182.6026
  5429.9000      0.0000      0.0162    182.6067
  5429.9500      0.0000      0.0162    182.6067
  5430.0000      0.0000      0.0162    182.6067
  5430.0500      0.0000      0.0162    182.6067
  5430.1000      0.0000      0.0162    182.6067
  5430.1500      0.0000      0.0150    182.6107
  5430.2000      0.0000      0.0150    182.6107
  5430.2500      0.0000      0.0150    182.6107
  5430.3000      0.0000      0.0150    182.6107
  5430.3500      0.0000      0.0150    182.6107
  5430.4000      0.0000      0.0140    182.6144
  5430.4500      0.0000      0.0140    182.6144
  5430.5000      0.0000      0.0140    182.6144
  5430.5500      0.0000      0.0140    182.6144
  5430.6000      0.0000      0.0140    182.6144
  5430.6500      0.0000      0.0131    182.6178
  5430.7000      0.0000      0.0131    182.6178
  5430.7500      0.0000      0.0131    182.6178
  5430.8000      0.0000      0.0131    182.6178
  5430.8500      0.0000      0.0131    182.6178
  5430.9000      0.0000      0.0123    182.6209
  5430.9500      0.0000      0.0123    182.6209
  5431.0000      0.0000      0.0123    182.6209
  5431.0500      0.0000      0.0123    182.6209
  5431.1000      0.0000      0.0123    182.6209
  5431.1500      0.0000      0.0117    182.6236
  5431.2000      0.0000      0.0117    182.6236
  5431.2500      0.0000      0.0117    182.6236
  5431.3000      0.0000      0.0117    182.6236
  5431.3500      0.0000      0.0117    182.6236
  5431.4000      0.0000      0.0113    182.6262
  5431.4500      0.0000      0.0113    182.6262
  5431.5000      0.0000      0.0113    182.6262
  5431.5500      0.0000      0.0113    182.6262
  5431.6000      0.0000      0.0113    182.6262
  5431.6500      0.0000      0.0110    182.6287
  5431.7000      0.0000      0.0110    182.6287
  5431.7500      0.0000      0.0110    182.6287
  5431.8000      0.0000      0.0110    182.6287
  5431.8500      0.0000      0.0110    182.6287
  5431.9000      0.0000      0.0109    182.6314
  5431.9500      0.0000      0.0109    182.6314
  5432.0000      0.0000      0.0109    182.6314
  5432.0500      0.0000      0.0109    182.6314
  5432.1000      0.0000      0.0109    182.6314
  5432.1500      0.0000      0.0110    182.6342
  5432.2000      0.0000      0.0110    182.6342
  5432.2500      0.0000      0.0110    182.6342
  5432.3000      0.0000      0.0110    182.6342
  5432.3500      0.0000      0.0110    182.6342
  5432.4000      0.0000      0.0111    182.6370
  5432.4500      0.0000      0.0111    182.6370
  5432.5000      0.0000      0.0111    182.6370
  5432.5500      0.0000      0.0111    182.6370
  5432.6000      0.0000      0.0111    182.6370
  5432.6500      0.0000      0.0112    182.6399
  5432.7000      0.0000      0.0112    182.6399
  5432.7500      0.0000      0.0112    182.6399
  5432.8000      0.0000      0.0112    182.6399
  5432.8500      0.0000      0.0112    182.6399
  5432.9000      0.0000      0.0112    182.6427
  5432.9500      0.0000      0.0112    182.6427
  5433.0000      0.0000      0.0112    182.6427
  5433.0500      0.0000      0.0112    182.6427
  5433.1000      0.0000      0.0112    182.6427
  5433.1500      0.0000      0.0110    182.6455
  5433.2000      0.0000      0.0110    182.6455
  5433.2500      0.0000      0.0110    182.6455
  5433.3000      0.0000      0.0110    182.6455
  5433.3500      0.0000      0.0110    182.6455
  5433.4000      0.0000      0.0108    182.6483
  5433.4500      0.0000      0.0108    182.6483
  5433.5000      0.0000      0.0108    182.6483
  5433.5500      0.0000      0.0108    182.6483
  5433.6000      0.0000      0.0108    182.6483
  5433.6500      0.0000      0.0105    182.6511
  5433.7000      0.0000      0.0105    182.6511
  5433.7500      0.0000      0.0105    182.6511
  5433.8000      0.0000      0.0105    182.6511
  5433.8500      0.0000      0.0105    182.6511
  5433.9000      0.0000      0.0103    182.6537
  5433.9500      0.0000      0.0103    182.6537
  5434.0000      0.0000      0.0103    182.6537
  5434.0500      0.0000      0.0103    182.6537
  5434.1000      0.0000      0.0103    182.6537
  5434.1500      0.0000      0.0102    182.6562
  5434.2000      0.0000      0.0102    182.6562
  5434.2500      0.0000      0.0102    182.6562
  5434.3000      0.0000      0.0102    182.6562
  5434.3500      0.0000      0.0102    182.6562
  5434.4000      0.0000      0.0101    182.6585
  5434.4500      0.0000      0.0101    182.6585
  5434.5000      0.0000      0.0101    182.6585
  5434.5500      0.0000      0.0101    182.6585
  5434.6000      0.0000      0.0101    182.6585
  5434.6500      0.0000      0.0099    182.6608
  5434.7000      0.0000      0.0099    182.6608
  5434.7500      0.0000      0.0099    182.6608
