~Version Information
VERS.                      2.0: CWLS Log ASCII Standard - VERSION 2.0
WRAP.                       NO: One line per depth step
~Well Information Block
STRT.FT              4700.0000: 
STOP.FT              6519.9000: 
STEP.FT                 0.0500: 
NULL.                -999.2500: 
COMP.               HESS CORP.: COMPANY
WELL.                TMU 0-143: WELL
FLD.                     TIOGA: FIELD
LOC.                          : LOCATION
CNTY.                MOUNTRAIL: COUNTY
SRVC.                         : SERVICE COMPANY
DATE.          Thu Apr 23 14-09-17 2009: LOG DATE
UWI.                          : UNIQUE WELL ID
STAT.                       ND: STATE
~Curve Information Block
DEPT.FT            0 000 00 00: Depth
CCL.                          : Casing Collar Locator
DTMP.degF                     : Delta Temperature
TEMP.degF                     : Downhole Temperature
~Parameter Information Block
~A  Depth       CCL         DTMP        TEMP    
# ...
  5543.3500      0.0000      0.0142    185.1899
  5543.4000      0.0000      0.0153    185.1934
  5543.4500      0.0000      0.0153    185.1934
  5543.5000      0.0000      0.0153    185.1934
  5543.5500      0.0000      0.0153    185.1934
  5543.6000      0.0000      0.0153    185.1934
  5543.6500      0.0000      0.0164    185.1974
  5543.7000      0.0000      0.0164    185.1974
  5543.7500      0.0000      0.0164    185.1974
  5543.8000      0.0000      0.0164    185.1974
  5543.8500      0.0000      0.0164    185.1974
  5543.9000      0.0000      0.0174    185.2017
  5543.9500      0.0000      0.0174    185.2017
  5544.0000      0.0000      0.0174    185.2017
  5544.0500      0.0000      0.0174    185.2017
  5544.1000      0.0000      0.0174    185.2017
  5544.1500      0.0000      0.0181    185.2065
  5544.2000      0.0000      0.0181    185.2065
  5544.2500      0.0000      0.0181    185.2065
  5544.3000      0.0000      0.0181    185.2065
  5544.3500      0.0000      0.0181    185.2065
  5544.4000      0.0000      0.0185    185.2114
  5544.4500      0.0000      0.0185    185.2114
  5544.5000      0.0000      0.0185    185.2114
  5544.5500      0.0000      0.0185    185.2114
  5544.6000      0.0000      0.0185    185.2114
  5544.6500      0.0000      0.0185    185.2165
  5544.7000      0.0000      0.0185    185.2165
  5544.7500      0.0000      0.0185    185.2165
  5544.8000      0.0000      0.0185    185.2165
  5544.8500      0.0000      0.0185    185.2165
  5544.9000      0.0000      0.0182    185.2215
  5544.9500      0.0000      0.0182    185.2215
  5545.0000      0.0000      0.0182    185.2215
  5545.0500      0.0000      0.0182    185.2215
  5545.1000      0.0000      0.0182    185.2215
  5545.1500      0.0000      0.0176    185.2261
  5545.2000      0.0000      0.0176    185.2261
  5545.2500      0.0000      0.0176    185.2261
  5545.3000      0.0000      0.0176    185.2261
  5545.3500      0.0000      0.0176    185.2261
  5545.4000      0.0000      0.0169    185.2304
  5545.4500      0.0000      0.0169    185.2304
  5545.5000      0.0000      0.0169    185.2304
  5545.5500      0.0000      0.0169    185.2304
  5545.6000      0.0000      0.0169    185.2304
  5545.6500      0.0000      0.0161    185.2343
  5545.7000      0.0000      0.0161    185.2343
  5545.7500      0.0000      0.0161    185.2343
  5545.8000      0.0000      0.0161    185.2343
  5545.8500      0.0000      0.0161    185.2343
  5545.9000      0.0000      0.0153    185.2380
  5545.9500      0.0000      0.0153    185.2380
  5546.0000      0.0000      0.0153    185.2380
  5546.0500      0.0000      0.0153    185.2380
  5546.1000      0.0000      0.0153    185.2380
  5546.1500      0.0000      0.0146    185.2417
  5546.2000      0.0000      0.0146    185.2417
  5546.2500      0.0000      0.0146    185.2417
  5546.3000      0.0000      0.0146    185.2417
  5546.3500      0.0000      0.0146    185.2417
  5546.4000      0.0000      0.0141    185.2452
  5546.4500      0.0000      0.0141    185.2452
  5546.5000      0.0000      0.0141    185.2452
  5546.5500      0.0000      0.0141    185.2452
  5546.6000      0.0000      0.0141    185.2452
  5546.6500      0.0000      0.0139    185.2487
  5546.7000      0.0000      0.0139    185.2487
  5546.7500      0.0000      0.0139    185.2487
  5546.8000      0.0000      0.0139    185.2487
  5546.8500      0.0000      0.0139    185.2487
  5546.9000      0.0000      0.0140    185.2520
  5546.9500      0.0000      0.0140    185.2520
  5547.0000      0.0000      0.0140    185.2520
  5547.0500      0.0000      0.0140    185.2520
  5547.1000      0.0000      0.0140    185.2520
  5547.1500      0.0000      0.0145    185.2552
  5547.2000      0.0000      0.0145    185.2552
  5547.2500      0.0000      0.0145    185.2552
  5547.3000      0.0000      0.0145    185.2552
  5547.3500      0.0000      0.0145    185.2552
  5547.4000      0.0000      0.0152    185.2585
  5547.4500      0.0000      0.0152    185.2585
  5547.5000      0.0000      0.0152    185.2585
  5547.5500      0.0000      0.0152    185.2585
  5547.6000      0.0000      0.0152    185.2585
  5547.6500      0.0000      0.0162    185.2621
  5547.7000      0.0000      0.0162    185.2621
  5547.7500      0.0000      0.0162    185.2621
  5547.8000      0.0000      0.0162    185.2621
  5547.8500      0.0000      0.0162    185.2621
  5547.9000      0.0000      0.0174    185.2661
  5547.9500      0.0000      0.0174    185.2661
  5548.0000      0.0000      0.0174    185.2661
  5548.0500      0.0000      0.0174    185.2661
  5548.1000      0.0000      0.0174    185.2661
  5548.1500      0.0000      0.0187    185.2706
  5548.2000      0.0000      0.0187    185.2706
  5548.2500      0.0000      0.0187    185.2706
  5548.3000      0.0000      0.0187    185.2706
  5548.3500      0.0000      0.0187    185.2706
  5548.4000      0.0000      0.0200    185.2757
  5548.4500      0.0000      0.0200    185.2757
  5548.5000      0.0000      0.0200    185.2757
  5548.5500      0.0000      0.0200    185.2757
  5548.6000      0.0000      0.0200    185.2757
  5548.6500      0.0000      0.0212    185.2811
  5548.7000      0.0000      0.0212    185.2811
  5548.7500      0.0000      0.0212    185.2811
  5548.8000      0.0000      0.0212    185.2811
  5548.8500      0.0000      0.0212    185.2811
  5548.9000      0.0000      0.0223    185.2868
  5548.9500      0.0000      0.0223    185.2868
  5549.0000      0.0000      0.0223    185.2868
  5549.0500      0.0000      0.0223    185.2868
  5549.1000      0.0000      0.0223    185.2868
  5549.1500      0.0000      0.0230    185.2926
  5549.2000      0.0000      0.0230    185.2926
  5549.2500      0.0000      0.0230    185.2926
  5549.3000      0.0000      0.0230    185.2926
  5549.3500      0.0000      0.0230    185.2926
  5549.4000      0.0000      0.0234    185.2985
  5549.4500      0.0000      0.0234    185.2985
  5549.5000      0.0000      0.0234    185.2985
  5549.5500      0.0000      0.0234    185.2985
  5549.6000      0.0000      0.0234    185.2985
  5549.6500      0.0000      0.0236    185.3045
  5549.7000      0.0000      0.0236    185.3045
  5549.7500      0.0000      0.0236    185.3045
  5549.8000      0.0000      0.0236    185.3045
  5549.8500      0.0000      0.0236    185.3045
  5549.9000      0.0000      0.0235    185.3106
  5549.9500      0.0000      0.0235    185.3106
  5550.0000      0.0000      0.0235    185.3106
  5550.0500      0.0000      0.0235    185.3106
  5550.1000      0.0000      0.0235    185.3106
  5550.1500      0.0000      0.0233    185.3166
  5550.2000      0.0000      0.0233    185.3166
  5550.2500      0.0000      0.0233    185.3166
  5550.3000      0.0000      0.0233    185.3166
  5550.3500      0.0000      0.0233    185.3166
  5550.4000      0.0000      0.0229    185.3226
  5550.4500      0.0000      0.0229    185.3226
  5550.5000      0.0000      0.0229    185.3226
  5550.5500      0.0000      0.0229    185.3226
  5550.6000      0.0000      0.0229    185.3226
  5550.6500      0.0000      0.0225    185.3283
  5550.7000      0.0000      0.0225    185.3283
  5550.7500      0.0000      0.0225    185.3283
  5550.8000      0.0000      0.0225    185.3283
  5550.8500      0.0000      0.0225    185.3283
  5550.9000      0.0000      0.0222    185.3338
  5550.9500      0.0000      0.0222    185.3338
  5551.0000      0.0000      0.0222    185.3338
  5551.0500      0.0000      0.0222    185.3338
  5551.1000      0.0000      0.0222    185.3338
  5551.1500      0.0000      0.0220    185.3392
  5551.2000      0.0000      0.0220    185.3392
  5551.2500      0.0000      0.0220    185.3392
  5551.3000      0.0000      0.0220    185.3392
  5551.3500      0.0000      0.0220    185.3392
  5551.4000      0.0000      0.0221    185.3443
  5551.4500      0.0000      0.0221    185.3443
  5551.5000      0.0000      0.0221    185.3443
  5551.5500      0.0000      0.0221    185.3443
  5551.6000      0.0000      0.0221    185.3443
  5551.6500      0.0000      0.0224    185.3496
